long,lat,id,plaza,tipo,tipo_norma,materiales,dias_y_horario,cooperativa,calle,altura,calle2,direccion,barrio,comuna,observaciones
-58.4653094716601,-34.567226390163,1,Plaza Castelli,Punto Verde Con Atención,punto_verde_con_atencion,Papel / Cartón / Vidrio / Metal / Plástico / Tetra-brik / Telgopor,Miércoles a Domingos de 11 a 19hs.,Amanecer,Conde,0,Juramento,CONDE y JURAMENTO,Belgrano,Comuna 13,"Para entregar los materiales, éstos deben estar limpios y secos"
-58.424945081451,-34.5892187395623,2,Plaza Armenia,Punto Verde Con Atención,punto_verde_con_atencion,Papel / Cartón / Vidrio / Metal / Plástico / Tetra-brik / Telgopor / Aceite vegetal usado,Miércoles a Domingos de 11 a 19hs.,Ceibo,Malabia,0,Costa Rica,MALABIA y COSTA RICA,Palermo,Comuna 14,"Para entregar los materiales, éstos deben estar limpios y secos"
-58.468391718268,-34.5470867941395,3,Plaza Balcarce,Punto Verde Con Atención,punto_verde_con_atencion,Papel / Cartón / Vidrio / Metal / Plástico / Tetra-brik / Telgopor / Aceite vegetal usado,Miércoles a Domingos de 11 a 19hs.,Madreselva,Manzanares,0,Vuelta de Obligado,MANZANARES y VUELTA DE OBLIGADO,Nuñez,Comuna 13,"Para entregar los materiales, éstos deben estar limpios y secos"
-58.503883870836106,-34.5763132835616,4,Plaza Leandro N. Alem,Punto Verde Con Atención,punto_verde_con_atencion,Papel / Cartón / Vidrio / Metal / Plástico / Tetra-brik / Telgopor / Aceite vegetal usado,Miércoles a Domingos de 11 a 19hs.,Alamo,Artigas,0,Larsen,"ARTIGAS, JOSE GERVASIO, GRAL. y LARSEN",Villa Pueyrredon,Comuna 12,"Para entregar los materiales, éstos deben estar limpios y secos"
-58.4834518640455,-34.629625512447,5,Plaza Vélez Sarfield,Punto Verde Con Atención,punto_verde_con_atencion,Papel / Cartón / Vidrio / Metal / Plástico / Tetra-brik / Telgopor / Aceite vegetal usado,Miércoles a Domingos de 11 a 19hs.,Amanecer,Av. Avellaneda,0,Chivilcoy,AVELLANEDA AV. y CHIVILCOY,Floresta,Comuna 10,"Para entregar los materiales, éstos deben estar limpios y secos"
-58.5166317280531,-34.649461448564104,6,Parque Santojanni,Punto Verde Especial,punto_verde_especial,Aparatos de informática y comunicación (hasta 3 unid. y accesorios) /pequeños electrodomésticos (hasta 3 un.)/ papel / cartón / metal / vidrio / plástico / telgopor / tetra-brik / Aceite Vegetal usado,Miércoles a Domingos de 11 a 19hs.,Recolectores del Oeste,Lisandro de La Torre,0,Patrón,"DE LA TORRE, LISANDRO y PATRON",Liniers,Comuna 9,"Para entregar los materiales, éstos deben estar limpios y secos - Aceite vegetal usado (frío y en envase cerrado de plástico)"
-58.4402033889077,-34.661767700827106,7,Estación Villa Soldati,Punto Verde Con Atención,punto_verde_con_atencion,Papel / Cartón / Vidrio / Metal / Plástico / Tetra-brik / Telgopor / Aceite vegetal usado,Miércoles a Domingos de 11 a 19hs.,Baires Cero,Lucio correa morales,0,Lafuente,"CORREA MORALES, LUCIO y LAFUENTE",Villa Soldati,Comuna 8,"Para entregar los materiales, éstos deben estar limpios y secos"
-58.4419608716794,-34.6357169970937,8,Parque Chacabuco,Punto Verde Con Atención,punto_verde_con_atencion,Papel / Cartón / Vidrio / Metal / Plástico / Tetra-brik / Telgopor,Miércoles a Domingos de 11 a 19hs.,Amanecer,Av. Asamblea,0,Hortiguera,ASAMBLEA AV. y HORTIGUERA,Parque Chacabuco,Comuna 7,"Para entregar los materiales, éstos deben estar limpios y secos"
-58.4189191695011,-34.6053130113315,9,Plaza Almagro,Punto Verde Especial,punto_verde_especial,Aparatos de informática y comunicación (hasta 3 unid. y accesorios) /pequeños electrodomésticos (hasta 3 un.)/ papel / cartón / metal / vidrio / plástico / telgopor / tetra-brik / Aceite Vegetal usado,Miércoles a Domingos de 11 a 19hs.,RUO,Sarmiento,0,Bulnes,SARMIENTO y BULNES,Almagro,Comuna 5,"Para entregar los materiales, éstos deben estar limpios y secos - Aceite vegetal usado (frío y en envase cerrado de plástico)"
-58.374541592578794,-34.6376736948918,10,Plaza Colombia,Punto Verde Con Atención,punto_verde_con_atencion,Papel / Cartón / Vidrio / Metal / Plástico / Tetra-brik / Telgopor / Aceite vegetal usado,Miércoles a Domingos de 11 a 19hs.,El Trebol,av. montes de oca,0,brandsen,"MONTES DE OCA, MANUEL AV. y BRANDSEN",Barracas,Comuna 4,"Para entregar los materiales, éstos deben estar limpios y secos"
-58.403754640352204,-34.6171961720433,11,Plaza Dr J.M Velazco Ibarra,Punto Verde Con Atención,punto_verde_con_atencion,Papel / Cartón / Vidrio / Metal / Plástico / Tetra-brik / Telgopor / Aceite vegetal usado,Miércoles a Domingos de 11 a 19hs.,Amanecer,Av. Jujuy,0,México,JUJUY AV. y MEXICO,Balvanera,Comuna 3,"Para entregar los materiales, éstos deben estar limpios y secos"
-58.375855695106495,-34.6221621676058,13,Plaza Rosario Vera Peñaloza,Punto Verde Con Atención,punto_verde_con_atencion,Papel / Cartón / Vidrio / Metal / Plástico / Tetra-brik / Telgopor / Aceite vegetal usado,Miércoles a Domingos de 11 a 19hs.,Cartonera Del Sur,Av. San Juan,0,Chacabuco,SAN JUAN AV. y CHACABUCO,San Telmo,Comuna 1,"Para entregar los materiales, éstos deben estar limpios y secos"
-58.4330506142859,-34.606445866175605,14,Punto Verde Especial - Parque Centenario,Punto Verde Especial,punto_verde_especial,Aparatos de informática y comunicación (hasta 3 unid. y accesorios) /pequeños electrodomésticos (hasta 3 un.)/ papel / cartón / metal / vidrio / plástico / telgopor / tetra-brik / Aceite Vegetal usado,Miércoles a Domingos de 10 a 19 hs.,,Av. Patricias Argentinas,0,Av. Roentgen,"PATRICIAS ARGENTINAS AV. y ROENTGEN, AV.",Caballito,Comuna 6,"Para entregar los materiales, éstos deben estar limpios y secos - Aceite vegetal usado (frío y en envase cerrado de plástico)"
-58.48147582592979,-34.5518218448997,15,Parque Saavedra,Punto Verde Con Atención,punto_verde_con_atencion,Papel / Cartón / Vidrio / Metal / Plástico / Tetra-brik / Telgopor / Aceite vegetal usado,Miércoles a Domingos de 11 a 19hs.,Madreselva,Roque Perez,0,Paroissien,"PEREZ, ROQUE y PAROISSIEN",Saavedra,Comuna 12,"Para entregar los materiales, éstos deben estar limpios y secos"
-58.4626639515872,-34.5801101790133,16,Plaza 25 de Agosto,Punto Verde Con Atención,punto_verde_con_atencion,Papel / Cartón / Vidrio / Metal / Plástico / Tetra-brik / Telgopor / Aceite vegetal usado,Miércoles a Domingos de 11 a 19hs.,Amanecer,Charlone,0,Heredia,CHARLONE y HEREDIA,Villa Ortuzar,Comuna 15,"Para entregar los materiales, éstos deben estar limpios y secos"
-58.4078113133035,-34.5977740370326,17,Plaza Monseñor de Andrea,Punto Verde Con Atención,punto_verde_con_atencion,Papel / Cartón / Vidrio / Metal / Plástico / Tetra-brik / Telgopor,Miércoles a Domingos de 11 a 19hs.,Ceibo,anchorena,0,av. cordoba,"ANCHORENA, TOMAS MANUEL DE, DR. y CORDOBA AV.",Balvanera,Comuna 3,"Para entregar los materiales, éstos deben estar limpios y secos"
-58.493464390901394,-34.6058758112926,18,Plaza Aristóbulo del Valle,Punto Verde Con Atención,punto_verde_con_atencion,Papel / Cartón / Vidrio / Metal / Plástico / Tetra-brik / Telgopor / Aceite vegetal usado,Miércoles a Domingos de 11 a 19hs.,Alamo,campana,0,Baigorria,CAMPANA y BAIGORRIA,Villa Del Parque,Comuna 11,"Para entregar los materiales, éstos deben estar limpios y secos"
-58.398126009603395,-34.611182741221,19,Plaza 1ro de Mayo,Punto Verde Con Atención,punto_verde_con_atencion,Papel / Cartón / Vidrio / Metal / Plástico / Tetra-brik / Telgopor / Aceite vegetal usado,Miércoles a Domingos de 11 a 19hs.,Amanecer,hipolito yrigoyen,0,pasco,"YRIGOYEN, HIPOLITO y PASCO",Balvanera,Comuna 3,"Para entregar los materiales, éstos deben estar limpios y secos"
-58.412731105665905,-34.622099829347,20,Plaza Boedo,Punto Verde Con Atención,punto_verde_con_atencion,Papel / Cartón / Vidrio / Metal / Plástico / Tetra-brik / Telgopor / Aceite vegetal usado,Miércoles a Domingos de 11 a 19hs.,Amanecer,estados unidos,0,sanchez de loria,ESTADOS UNIDOS y SANCHEZ DE LORIA,Boedo,Comuna 5,"Para entregar los materiales, éstos deben estar limpios y secos"
-58.4753055220067,-34.6878324250602,21,Plaza Sudamérica,Punto Verde Con Atención,punto_verde_con_atencion,Papel / Cartón / Vidrio / Metal / Plástico / Tetra-brik / Telgopor / Aceite vegetal usado,Miércoles a Domingos de 11 a 19hs.,Baires Cero,PIEDRA BUENA AV.,0,"FERNANDEZ DE LA CRUZ, F. GRAL., AV.","PIEDRA BUENA AV. y FERNANDEZ DE LA CRUZ, F., GRAL. AV.",Villa Riachuelo,Comuna 8,"Para entregar los materiales, éstos deben estar limpios y secos"
-58.448553913197,-34.592240668730604,22,Parque Los Andes,Punto Verde Especial,punto_verde_especial,Aparatos de informática y comunicación (hasta 3 unid. y accesorios) /pequeños electrodomésticos (hasta 3 un.)/ papel / cartón / metal / vidrio / plástico / telgopor / tetra-brik /Aceite Vegetal usado,Miércoles a Domingos de 11 a 19 hs.,Amanecer,DORREGO AV.,0,av. guzman,DORREGO AV. y GUZMAN,Chacarita,Comuna 15,"Para entregar los materiales, éstos deben estar limpios y secos - Aceite vegetal usado (frío y en envase cerrado de plástico)"
-58.4161625492261,-34.5892930194736,23,Plaza Güemes,Punto Verde Especial,punto_verde_especial,Aparatos de informática y comunicación (hasta 3 unid. y accesorios) /pequeños electrodomésticos (hasta 3 un.)/ papel / cartón / metal / vidrio / plástico / telgopor / tetra-brik / Aceite Vegetal usado,Miércoles a Domingos de 11 a 19hs.,Ceibo,Medrano,0,Charcas,MEDRANO y CHARCAS,Palermo,Comuna 14,"Para entregar los materiales, éstos deben estar limpios y secos - Aceite vegetal usado (frío y en envase cerrado de plástico)"
-58.454547596941794,-34.5619390109882,24,Plaza Gral. Manuel Belgrano,Punto Verde Especial,punto_verde_especial,Aparatos de informática y comunicación (hasta 3 unid. y accesorios) /pequeños electrodomésticos (hasta 3 un.)/ papel / cartón / metal / vidrio / plástico / telgopor / tetra-brik / Aceite Vegetal usado,Miércoles a Domingos de 11 a 19 hs.,Madreselva,cuba,0,av. juramento,CUBA y JURAMENTO AV.,Belgrano,Comuna 13,"Para entregar los materiales, éstos deben estar limpios y secos - Aceite vegetal usado (frío y en envase cerrado de plástico)"
-58.5124292567045,-34.600354192716395,25,Punto Verde Especial - Plaza Arenales,Punto Verde Especial,punto_verde_especial,Aparatos de informática y comunicación (hasta 3 unid. y accesorios) /pequeños electrodomésticos (hasta 3 un.)/ papel / cartón / metal / vidrio / plástico / telgopor / tetra-brik / Aceite Vegetal usado,Miércoles a Domingos de 10 a 19 hs.,,Nueva York,0,Mercedes,NUEVA YORK y MERCEDES,Villa Devoto,Comuna 11,"Para entregar los materiales, éstos deben estar limpios y secos - Aceite vegetal usado (frío y en envase cerrado de plástico)"
-58.5084848960134,-34.6264557896207,26,Plaza Don Bosco,Punto Verde Especial,punto_verde_especial,Aparatos de informática y comunicación (hasta 3 unid. y accesorios) /pequeños electrodomésticos (hasta 3 un.)/ papel / cartón / metal / vidrio / plástico / telgopor / tetra-brik / Aceite Vegetal usado,Miércoles a Domingos de 11 a 19 hs.,RUO,LOPE DE VEGA AV.,0,elpidio gonzalez,"LOPE DE VEGA AV. y GONZALEZ, ELPIDIO",Monte Castro,Comuna 10,"Para entregar los materiales, éstos deben estar limpios y secos - Aceite vegetal usado (frío y en envase cerrado de plástico)"
-58.481794723889706,-34.6433319447114,27,Parque Avellaneda,Punto Verde Con Atención,punto_verde_con_atencion,Papel / Cartón / Vidrio / Metal / Plástico / Tetra-brik / Telgopor / Aceite vegetal usado,Miércoles a Domingos de 11 a 19 hs.,RUO,Av Directorio,0,fernandez,DIRECTORIO AV. y FERNANDEZ,Parque Avellaneda,Comuna 9,"Para entregar los materiales, éstos deben estar limpios y secos"
-58.4642200355938,-34.6280359189893,28,Plaza Pueyrredón,Punto Verde Con Atención,punto_verde_con_atencion,Papel / Cartón / Vidrio / Metal / Plástico / Tetra-brik / Telgopor / Aceite vegetal usado,Miércoles a Domingos de 11 a 19 hs.,RUO,yerbal,0,artigas,"YERBAL y ARTIGAS, JOSE GERVASIO, GRAL.",Flores,Comuna 7,"Para entregar los materiales, éstos deben estar limpios y secos"
-58.4341927502845,-34.6174901201364,29,Parque Rivadavia,Punto Verde Con Atención,punto_verde_con_atencion,Papel / Cartón / Vidrio / Metal / Plástico / Tetra-brik / Telgopor / Aceite vegetal usado,Miércoles a Domingos de 11 a 19 hs.,Amanecer,RIVADAVIA AV.,0,florencio balcarce,"RIVADAVIA AV. y BALCARCE, FLORENCIO",Caballito,Comuna 6,"Para entregar los materiales, éstos deben estar limpios y secos"
-58.406224041864995,-34.637969989982096,30,Parque Patricios,Punto Verde Con Atención,punto_verde_con_atencion,Papel / Cartón / Vidrio / Metal / Plástico / Tetra-brik / Telgopor / Aceite vegetal usado,Miércoles a Domingos de 11 a 19 hs.,Trabajo y Dignidad,CASEROS AV.,0,MONTEAGUDO,CASEROS AV. y MONTEAGUDO,Parque Patricios,Comuna 4,"Para entregar los materiales, éstos deben estar limpios y secos"
-58.4047256146205,-34.624251481317394,33,Plaza Vea,Punto Verde Con Atención,punto_verde_con_atencion,Papel / Cartón / Vidrio / Metal / Plástico / Tetra-brik / Telgopor / Aceite vegetal usado,Miércoles a Domingos de 11 a 19 hs.,Amanecer,San Juan,2860,,SAN JUAN AV. y DEAN FUNES,San Cristobal,Comuna 3,"Para entregar los materiales, éstos deben estar limpios y secos"
-58.4647672702473,-34.6775016157103,34,Villa 20,Punto Verde Con Atención,punto_verde_con_atencion,Papel / Cartón / Vidrio / Metal / Plástico / Tetra-brik / Telgopor / Aceite vegetal usado,Miércoles a Domingos de 11 a 19 hs.,Baires Cero,Pola,0,Fernández de la Cruz,"POLA y FERNANDEZ DE LA CRUZ, F., GRAL. AV.",Villa Lugano,Comuna 8,"Para entregar los materiales, éstos deben estar limpios y secos"
-58.4583421246111,-34.6137226587943,35,Plaza Irlanda,Punto Verde Con Atención,punto_verde_con_atencion,Papel / Cartón / Vidrio / Metal / Plástico / Tetra-brik / Telgopor / Aceite vegetal usado,Miércoles a Domingos de 11 a 19 hs.,RUO,Donato Álvarez,0,Gaona,"ALVAREZ, DONATO, TTE. GRAL. y GAONA AV.",Caballito,Comuna 6,"Para entregar los materiales, éstos deben estar limpios y secos"
-58.4877573473134,-34.5595618078195,36,Plaza Alberdi,Punto Verde Con Atención,punto_verde_con_atencion,Papel / Cartón / Vidrio / Metal / Plástico / Tetra-brik / Telgopor,Miércoles a Domingos de 11 a 19 hs.,Madreselva,Larralde,0,mariano acha,"LARRALDE, CRISOLOGO AV. y ACHA, MARIANO, GRAL.",Saavedra,Comuna 12,"Para entregar los materiales, éstos deben estar limpios y secos"
-58.5208907158006,-34.6280537555576,38,Plaza Ciudad de Banff,Punto Verde Con Atención,punto_verde_con_atencion,Papel / Cartón / Vidrio / Metal / Plástico / Tetra-brik / Telgopor / Aceite vegetal usado,Miércoles a Domingos de 11 a 19 hs.,RUO,Arregui,0,lisboa,ARREGUI AV. y LISBOA,Versalles,Comuna 10,"Para entregar los materiales, éstos deben estar limpios y secos"
-58.468089325886,-34.6104125599157,39,Plaza de Roque Saenz Peña (Pappo),Punto Verde Con Atención,punto_verde_con_atencion,Papel / Cartón / Vidrio / Metal / Plástico / Tetra-brik / Telgopor / Aceite vegetal usado,Miércoles a Domingos de 11 a 19 hs.,Amanecer,Remedio de Escalada,0,Boyaca,"ESCALADA DE SAN MARTIN, R. y BOYACA",Villa Gral. Mitre,Comuna 11,"Para entregar los materiales, éstos deben estar limpios y secos"
-58.4914811166312,-34.6024766796329,40,Racing Club Sede Villa del Parque,Punto Verde De Interior (Totem),punto_verde_de_interior_totem,Papel / Cartón / Vidrio / Metal / Plástico / Tetra-brik / Telgopor,Horario de atención del edificio en el que está instalado,Alamo,Nogoyá,3045,,NOGOYA 3045,Villa Del Parque,Comuna 11,"Para entregar los materiales, éstos deben estar limpios y secos"
-58.4444010760112,-34.5831917274978,41,Mercado de Pulgas,Punto Verde De Interior (Totem),punto_verde_de_interior_totem,Papel / Cartón / Vidrio / Metal / Plástico / Tetra-brik / Telgopor,Horario de atención del edificio en el que está instalado,Amanecer,Av. Dorrego,0,Av. Niceto Vega,"DORREGO AV. y VEGA, NICETO, CNEL. AV.",Palermo,Comuna 14,"Para entregar los materiales, éstos deben estar limpios y secos"
-58.4578284377231,-34.562484153983306,42,Mercado de Belgrano,Punto Verde De Interior (Totem),punto_verde_de_interior_totem,Papel / Cartón / Vidrio / Metal / Plástico / Tetra-brik / Telgopor,Horario de atención del edificio en el que está instalado,Madreselva,Juramento,2501,,JURAMENTO AV. 2501,Belgrano,Comuna 13,"Para entregar los materiales, éstos deben estar limpios y secos"
-58.437871707479296,-34.5835483354191,43,Mercado de Bonpland,Punto Verde De Interior (Totem),punto_verde_de_interior_totem,Papel / Cartón / Vidrio / Metal / Plástico / Tetra-brik / Telgopor,Horario de atención del edificio en el que está instalado,Amanecer,Bonpland,1660,,BONPLAND 1660,Palermo,Comuna 14,"Para entregar los materiales, éstos deben estar limpios y secos"
-58.3922181139494,-34.5997792587847,44,Mercado de San Nicolas,Punto Verde De Interior (Totem),punto_verde_de_interior_totem,Papel / Cartón / Vidrio / Metal / Plástico / Tetra-brik / Telgopor,Horario de atención del edificio en el que está instalado,Amanecer,Av. Córdoba,1750,,CORDOBA AV. 1750,San Nicolas,Comuna 1,"Para entregar los materiales, éstos deben estar limpios y secos"
-58.3795399508893,-34.6548272315099,45,CMD,Punto Verde De Interior (Totem),punto_verde_de_interior_totem,Papel / Cartón / Vidrio / Metal / Plástico / Tetra-brik / Telgopor,Horario de atención del edificio en el que está instalado,Aleli,Algarrobo,1041,,ALGARROBO 1041,Barracas,Comuna 4,"Para entregar los materiales, éstos deben estar limpios y secos"
-58.3704812328452,-34.6059248587355,46,Ministerio del Interior,Punto Verde De Interior (Totem),punto_verde_de_interior_totem,Papel / Cartón / Vidrio / Metal / Plástico / Tetra-brik / Telgopor,Horario de atención del edificio en el que está instalado,Amanecer,Av. Leandro N. Alem,150,,"ALEM, LEANDRO N. AV. 150",San Nicolas,Comuna 1,"Para entregar los materiales, éstos deben estar limpios y secos"
-58.48349323390801,-34.6319429066532,47,Sede Comuna 10,Punto Verde De Interior (Totem),punto_verde_de_interior_totem,Papel / Cartón / Vidrio / Metal / Plástico / Tetra-brik / Telgopor,Horario de atención del edificio en el que está instalado,RUO,Bacacay,3968,,BACACAY 3968,Floresta,Comuna 10,"Para entregar los materiales, éstos deben estar limpios y secos"
-58.4328077486454,-34.6056004980668,49,Sede comuna 6,Punto Verde De Interior (Totem),punto_verde_de_interior_totem,Papel / Cartón / Vidrio / Metal / Plástico / Tetra-brik / Telgopor,Horario de atención del edificio en el que está instalado,Amanecer,Av. Patricias Argentinas,277,,PATRICIAS ARGENTINAS AV. 277,Caballito,Comuna 6,"Para entregar los materiales, éstos deben estar limpios y secos"
-58.40929504436129,-34.5871539229268,50,sede comuna 14,Punto Verde De Interior (Totem),punto_verde_de_interior_totem,Papel / Cartón / Vidrio / Metal / Plástico / Tetra-brik / Telgopor,Horario de atención del edificio en el que está instalado,Ceibo,Beruti,3325,,BERUTI 3325,Palermo,Comuna 14,"Para entregar los materiales, éstos deben estar limpios y secos"
-58.441557363601,-34.6211179761868,51,Mercado del Progreso,Punto Verde De Interior (Totem),punto_verde_de_interior_totem,Papel / Cartón / Vidrio / Metal / Plástico / Tetra-brik / Telgopor,Horario de atención del edificio en el que está instalado,RUO,Av. Rivadavia,5430,,RIVADAVIA AV. 5430,Caballito,Comuna 6,"Para entregar los materiales, éstos deben estar limpios y secos"
-58.36983464376571,-34.6289667271251,52,Palacio Lezama,Punto Verde De Interior (Totem),punto_verde_de_interior_totem,Papel / Cartón / Vidrio / Metal / Plástico / Tetra-brik / Telgopor,Horario de atención del edificio en el que está instalado,El Trebol,Martin Garcia,346,,"GARCIA, MARTIN AV. 346",Boca,Comuna 4,"Para entregar los materiales, éstos deben estar limpios y secos"
-58.45102364802939,-34.5572712834662,53,Barrio chino 2,Punto Verde Compactador,punto_verde_compactador,Papel / Cartón / Vidrio / Metal / Plástico / Tetra-brik / Telgopor,"Lunes a Domingo, las 24 hs.",Madreselva,Arribeños,2200,,ARRIBEÑOS 2200,Belgrano,Comuna 13,"Para entregar los materiales, éstos deben estar limpios y secos"
-58.375005728876495,-34.6072021287002,54,Diagonal Norte y Florida,Punto Verde Compactador,punto_verde_compactador,Papel / Cartón / Vidrio / Metal / Plástico / Tetra-brik / Telgopor,"Lunes a Domingo, las 24 hs.",Amanecer,Diagonal Norte,0,Florida,"SAENZ PEÑA, ROQUE, PRES. DIAGONAL NORTE AV. y FLORIDA",San Nicolas,Comuna 1,"Para entregar los materiales, éstos deben estar limpios y secos"
-58.3917442320714,-34.5838544290076,55,Facultad de Derecho,Punto Verde Compactador,punto_verde_compactador,Papel / Cartón / Vidrio / Metal / Plástico / Tetra-brik / Telgopor,"Lunes a Domingo, las 24 hs.",Ceibo,Figueroa Alcorta,2200,,"FIGUEROA ALCORTA, PRES. AV. 2200",Recoleta,Comuna 2,"Para entregar los materiales, éstos deben estar limpios y secos"
-58.39086709872271,-34.5879312249325,56,Restaurant LA BIELA,Punto Verde Compactador,punto_verde_compactador,Papel / Cartón / Vidrio / Metal / Plástico / Tetra-brik / Telgopor,"Lunes a Domingo, las 24 hs.",Ceibo,Av. Quintana,500,,"QUINTANA, MANUEL, PRES. AV. 500",Recoleta,Comuna 2,"Para entregar los materiales, éstos deben estar limpios y secos"
-58.403475188467,-34.5773298711948,57,MALBA,Punto Verde Compactador,punto_verde_compactador,Papel / Cartón / Vidrio / Metal / Plástico / Tetra-brik / Telgopor,"Lunes a Domingo, las 24 hs.",Ceibo,Figueroa Alcorta,3400,,"FIGUEROA ALCORTA, PRES. AV. 3400",Palermo,Comuna 14,"Para entregar los materiales, éstos deben estar limpios y secos"
-58.3756007433316,-34.5964410008218,58,Plaza San Martín,Punto Verde Compactador,punto_verde_compactador,Papel / Cartón / Vidrio / Metal / Plástico / Tetra-brik / Telgopor,"Lunes a Domingo, las 24 hs.",Amanecer,Marcelo T. de Alvear,600,,"ALVEAR, MARCELO T. DE 600",Retiro,Comuna 1,"Para entregar los materiales, éstos deben estar limpios y secos"
-58.365713127676,-34.6129170089403,59,UCA,Punto Verde Compactador,punto_verde_compactador,Papel / Cartón / Vidrio / Metal / Plástico / Tetra-brik / Telgopor,"Lunes a Domingo, las 24 hs.",Ceibo,Juana Manuela Gorriti,1200,,GORRITI JUANA MANUELA 1200,Puerto Madero,Comuna 1,"Para entregar los materiales, éstos deben estar limpios y secos"
-58.4733256266181,-34.6219906656818,60,Plaza de los Periodistas,Punto Verde Especial,punto_verde_especial,Aparatos de informática y comunicación (hasta 3 unid. y accesorios) /pequeños electrodomésticos (hasta 3 un.)/ papel / cartón / metal / vidrio / plástico / telgopor / tetra-brik / Aceite Vegetal usado,Miércoles a Domingos de 11 a 19 hs.,RUO,Nazca,0,Neuquén,NAZCA  AV. y NEUQUEN,Flores,Comuna 7,"Para entregar los materiales, éstos deben estar limpios y secos - Aceite vegetal usado (frío y en envase cerrado de plástico)"
-58.4844870439414,-34.587979186870996,61,Plaza Nobel,Punto Verde Con Atención,punto_verde_con_atencion,Papel / Cartón / Vidrio / Metal / Plástico / Tetra-brik / Telgopor,Miércoles a Domingos de 11 a 19 hs.,Alamo,Bucarest,0,Hamburgo,BUCAREST y HAMBURGO,Parque Chas,Comuna 15,"Para entregar los materiales, éstos deben estar limpios y secos"
-58.4986913834034,-34.6162609940357,62,Club All Boys,Punto Verde De Interior (Totem),punto_verde_de_interior_totem,Papel / Cartón / Vidrio / Metal / Plástico / Tetra-brik / Telgopor,Horario de atención del edificio en el que está instalado,Alamo,Alvarez Jonte,4180,,ALVAREZ JONTE AV. 4180,Monte Castro,Comuna 10,"Para entregar los materiales, éstos deben estar limpios y secos"
-58.4247672943474,-34.650257238887804,63,Sede Comuna 4,Punto Verde De Interior (Totem),punto_verde_de_interior_totem,Papel / Cartón / Vidrio / Metal / Plástico / Tetra-brik / Telgopor,Horario de atención del edificio en el que está instalado,Trabajo y Dignidad,Del Barco Centenera,2906,,BARCO CENTENERA DEL 2906,Nueva Pompeya,Comuna 4,"Para entregar los materiales, éstos deben estar limpios y secos"
-58.3656815388326,-34.6080197146461,64,Puente de la Mujer,Punto Verde Compactador,punto_verde_compactador,Papel / Cartón / Vidrio / Metal / Plástico / Tetra-brik / Telgopor,"Lunes a Domingo, las 24 hs.",Ceibo,Juana Manuela Gorriti,800,,GORRITI JUANA MANUELA 800,Puerto Madero,Comuna 1,"Para entregar los materiales, éstos deben estar limpios y secos"
-58.512684841440894,-34.6341355344141,65,Club Vélez Sarsfield,Punto Verde De Interior (Totem),punto_verde_de_interior_totem,Papel / Cartón / Vidrio / Metal / Plástico / Tetra-brik / Telgopor,Horario de atención del edificio en el que está instalado,RUO,Av. Juan B. Justo,8800,,"JUSTO, JUAN B. AV. 8800",Versalles,Comuna 10,"Para entregar los materiales, éstos deben estar limpios y secos"
-58.4671861182302,-34.5883928650398,66,Plaza Malaver,Punto Verde Con Atención,punto_verde_con_atencion,Papel / Cartón / Vidrio / Metal / Plástico / Tetra-brik / Telgopor,Miércoles a Domingos de 11 a 19 hs.,Amanecer,Montenegro,0,Heredia,MONTENEGRO y HEREDIA,Villa Ortuzar,Comuna 15,"Para entregar los materiales, éstos deben estar limpios y secos"
-58.502843124424,-34.6601077710314,67,Parque Alberdi,Punto Verde Con Atención,punto_verde_con_atencion,Papel / Cartón / Vidrio / Metal / Plástico / Tetra-brik / Telgopor / Aceite vegetal usado,Miércoles a Domingos de 11 a 19 hs.,Recolectores del Oeste,Directorio,0,Lisandro de la torre,"DIRECTORIO AV. y DE LA TORRE, LISANDRO AV.",Mataderos,Comuna 9,"Para entregar los materiales, éstos deben estar limpios y secos"
-58.3990098954512,-34.5966492074738,68,Sede Comuna 2,Punto Verde De Interior (Totem),punto_verde_de_interior_totem,Papel / Cartón / Vidrio / Metal / Plástico / Tetra-brik / Telgopor,Horario de atención del edificio en el que está instalado,Ceibo,Pres. José E. Uriburu,1022,,"URIBURU JOSE E., PRES. 1022",Recoleta,Comuna 2,"Para entregar los materiales, éstos deben estar limpios y secos"
-58.4448294454045,-34.6048827557738,69,Plaza Benito Nazar,Punto Verde Con Atención,punto_verde_con_atencion,Papel / Cartón / Vidrio / Metal / Plástico / Tetra-brik / Telgopor,Miércoles a Domingos de 11 a 19 hs.,Amanecer,Antezana,0,Olaya,ANTEZANA y OLAYA,Villa Crespo,Comuna 15,"Para entregar los materiales, éstos deben estar limpios y secos"
-58.4743731875924,-34.6459455943673,70,Polidep. Parque Avellaneda,Punto Verde De Interior (Totem),punto_verde_de_interior_totem,Papel / Cartón / Vidrio / Metal / Plástico / Tetra-brik / Telgopor,Horario de atención del edificio en el que está instalado,RUO,Av. Lacarra,1257,,LACARRA AV. 1257,Parque Avellaneda,Comuna 9,"Para entregar los materiales, éstos deben estar limpios y secos"
-58.4911408878655,-34.6221984221089,71,Polidep. Pomar/Floresta,Punto Verde De Interior (Totem),punto_verde_de_interior_totem,Papel / Cartón / Vidrio / Metal / Plástico / Tetra-brik / Telgopor,Horario de atención del edificio en el que está instalado,Alamo,Mercedes,1300,,MERCEDES 1300,Floresta,Comuna 10,"Para entregar los materiales, éstos deben estar limpios y secos"
-58.444622877224504,-34.6330462526228,72,Polidep. Chacabuco,Punto Verde De Interior (Totem),punto_verde_de_interior_totem,Papel / Cartón / Vidrio / Metal / Plástico / Tetra-brik / Telgopor,Horario de atención del edificio en el que está instalado,Amanecer,Av. Eva Peron,1410,,"PERON, EVA AV. 1410",Parque Chacabuco,Comuna 7,"Para entregar los materiales, éstos deben estar limpios y secos"
-58.4439773675627,-34.580076636898696,73,Polidep. Colegiales,Punto Verde De Interior (Totem),punto_verde_de_interior_totem,Papel / Cartón / Vidrio / Metal / Plástico / Tetra-brik / Telgopor,Horario de atención del edificio en el que está instalado,Amanecer,Gral. Rámon Freire,120,,"FREIRE, RAMON, CAP. GRAL. 120",Colegiales,Comuna 13,"Para entregar los materiales, éstos deben estar limpios y secos"
-58.441379162475606,-34.5870242659301,74,Sede Comuna 15,Punto Verde De Interior (Totem),punto_verde_de_interior_totem,Papel / Cartón / Vidrio / Metal / Plástico / Tetra-brik / Telgopor,Horario de atención del edificio en el que está instalado,Amanecer,Av. Cordoba,5690,,CORDOBA  AV. 5690,Chacarita,Comuna 15,"Para entregar los materiales, éstos deben estar limpios y secos"
-58.376459745145596,-34.6383257297867,75,Polidep. Don Pepe,Punto Verde De Interior (Totem),punto_verde_de_interior_totem,Papel / Cartón / Vidrio / Metal / Plástico / Tetra-brik / Telgopor,Horario de atención del edificio en el que está instalado,El Trebol,"Hornos, Gral.",0,Brandsen,"HORNOS, GRAL. y BRANDSEN",Barracas,Comuna 4,"Para entregar los materiales, éstos deben estar limpios y secos"
-58.3893810778778,-34.64927141268689,76,Polidep. Pereyra,Punto Verde De Interior (Totem),punto_verde_de_interior_totem,Papel / Cartón / Vidrio / Metal / Plástico / Tetra-brik / Telgopor,Horario de atención del edificio en el que está instalado,Aleli,Velez Sarsfield Av.,1271,,VELEZ SARSFIELD AV. 1271,Barracas,Comuna 4,"Para entregar los materiales, éstos deben estar limpios y secos"
-58.4895166894511,-34.5725187435243,77,Plaza Echeverria,Punto Verde Especial,punto_verde_especial,Aparatos de informática y comunicación (hasta 3 unid. y accesorios) /pequeños electrodomésticos (hasta 3 un.)/ papel / cartón / metal / vidrio / plástico / telgopor / tetra-brik / Aceite Vegetal usado,Miércoles a Domingos de 11 a 19 hs.,Amanecer,Dr. Pedro Ignacio Rivera,0,Bauness,"RIVERA, PEDRO I., DR. y BAUNESS",Villa Urquiza,Comuna 12,"Para entregar los materiales, éstos deben estar limpios y secos - Aceite vegetal usado (frío y en envase cerrado de plástico)"
-58.52015212634271,-34.657455974583,78,Plaza Rómulo Zabala,Punto Verde Con Atención,punto_verde_con_atencion,Papel / Cartón / Vidrio / Metal / Plástico / Tetra-brik / Telgopor / Aceite vegetal usado,Miércoles a Domingos de 11 a 19 hs.,Recolectores del Oeste,Ercilla,7502,,ERCILLA 7502,Mataderos,Comuna 9,"Para entregar los materiales, éstos deben estar limpios y secos"
-58.4777462722301,-34.5685181079045,79,Sede Comuna 12,Punto Verde De Interior (Totem),punto_verde_de_interior_totem,Papel / Cartón / Vidrio / Metal / Plástico / Tetra-brik / Telgopor,Horario de atención del edificio en el que está instalado,Amanecer,Holmberg,2548,,HOLMBERG 2548,Villa Urquiza,Comuna 12,"Para entregar los materiales, éstos deben estar limpios y secos"
-58.408873838405896,-34.6395692943904,80,Polidep. Patricios,Punto Verde De Interior (Totem),punto_verde_de_interior_totem,Papel / Cartón / Vidrio / Metal / Plástico / Tetra-brik / Telgopor,Horario de atención del edificio en el que está instalado,Trabajo y Dignidad,Pepiri,135,,PEPIRI 135,Parque Patricios,Comuna 4,"Para entregar los materiales, éstos deben estar limpios y secos"
-58.4085324438706,-34.6262507788921,81,Polidep. Martin Fierro,Punto Verde De Interior (Totem),punto_verde_de_interior_totem,Papel / Cartón / Vidrio / Metal / Plástico / Tetra-brik / Telgopor,Horario de atención del edificio en el que está instalado,Amanecer,Oruro,1310,,ORURO 1310,San Cristobal,Comuna 3,"Para entregar los materiales, éstos deben estar limpios y secos"
-58.4022363372085,-34.5734402977984,82,Polidep. Manuel Belgrano,Punto Verde De Interior (Totem),punto_verde_de_interior_totem,Papel / Cartón / Vidrio / Metal / Plástico / Tetra-brik / Telgopor,Horario de atención del edificio en el que está instalado,Amanecer,Salguero,3450,,"SALGUERO, JERONIMO 3450",Recoleta,Comuna 2,"Para entregar los materiales, éstos deben estar limpios y secos"
-58.4839485277984,-34.647068142659194,83,Plaza Domingo Olivera,Punto Verde Con Atención,punto_verde_con_atencion,Papel / Cartón / Vidrio / Metal / Plástico / Tetra-brik / Telgopor,Miércoles a Domingos de 11 a 19 hs.,RUO,Olivera,824,,OLIVERA AV. 824,Parque Avellaneda,Comuna 9,"Para entregar los materiales, éstos deben estar limpios y secos"
-58.4300805196272,-34.5737040539017,84,Ministerio de Desarrollo Social,Punto Verde De Interior (Totem),punto_verde_de_interior_totem,Papel / Cartón / Vidrio / Metal / Plástico / Tetra-brik / Telgopor,Horario de atención del edificio en el que está instalado,Amanecer,Huergo,131,,HUERGO 131,Palermo,Comuna 14,"Para entregar los materiales, éstos deben estar limpios y secos"
-58.378619501757605,-34.6415817701736,85,Subsede Comuna 4,Punto Verde De Interior (Totem),punto_verde_de_interior_totem,Papel / Cartón / Vidrio / Metal / Plástico / Tetra-brik / Telgopor,Horario de atención del edificio en el que está instalado,El Trebol,Suarez,2032,,SUAREZ AV. 2032,,,"Para entregar los materiales, éstos deben estar limpios y secos"
-58.4551829280695,-34.6848371251755,86,Dirección General de Licencias,Punto Verde De Interior (Totem),punto_verde_de_interior_totem,Papel / Cartón / Vidrio / Metal / Plástico / Tetra-brik / Telgopor,Horario de atención del edificio en el que está instalado,baires Cero,Av. Roca,5252,,"ROCA, CNEL. AV. 5252",,,"Para entregar los materiales, éstos deben estar limpios y secos"
-58.438498763493605,-34.5470228093443,87,FADU/Ciudad Universitaria,Punto Verde Con Atención,punto_verde_con_atencion,Papel / Cartón / Vidrio / Metal / Plástico / Tetra-brik / Telgopor,Miércoles a Domingos de 11 a 19 hs.,Madreselva,Intendente Guiraldes,2160,,"GUIRALDES, INT. 2560",,,"Para entregar los materiales, éstos deben estar limpios y secos."
-58.4498952817886,-34.5579560095467,88,Barrio chino,Punto Verde Compactador,punto_verde_compactador,Papel / Cartón / Vidrio / Metal / Plástico / Tetra-brik / Telgopor,"Lunes a Domingo, las 24 hs.",Madreselva,Arribeños,2100,,ARRIBEÑOS 2101,,,"Para entregar los materiales, éstos deben estar limpios y secos"
-58.369448590284904,-34.6283216878452,89,Parque Lezama,Punto Verde Compactador,punto_verde_compactador,Papel / Cartón / Vidrio / Metal / Plástico / Tetra-brik / Telgopor,"Lunes a Domingo, las 24 hs.",El Trebol,Martin Garcia,0,Irala,"GARCIA, MARTIN AV. e IRALA",San Telmo,Comuna 1,"Para entregar los materiales, éstos deben estar limpios y secos"
-58.425927198527496,-34.5887304859498,90,Plaza Armenia,Punto Verde Compactador,punto_verde_compactador,Papel / Cartón / Vidrio / Metal / Plástico / Tetra-brik / Telgopor,"Lunes a Domingo, las 24 hs.",Ceibo,Costa Rica,0,Armenia,COSTA RICA Y ARMENIA,Palermo,Comuna 14,"Para entregar los materiales, éstos deben estar limpios y secos"
-58.4488317966911,-34.6184552259874,91,Club Ferro Carril Oeste,Punto Verde De Interior (Totem),punto_verde_de_interior_totem,Papel / Cartón / Vidrio / Metal / Plástico / Tetra-brik / Telgopor,Horario de atención del edificio en el que está instalado,RUO,Avellaneda,1240,,AVELLANEDA  AV. 1240,Caballito,Comuna 6,"Para entregar los materiales, éstos deben estar limpios y secos"
-58.3936882338227,-34.5890554209472,92,Subsede Comuna 2,Punto Verde De Interior (Totem),punto_verde_de_interior_totem,Papel / Cartón / Vidrio / Metal / Plástico / Tetra-brik / Telgopor,Horario de atención del edificio en el que está instalado,Ceibo,Vicente López,2050,,"LOPEZ, VICENTE 2050",Recoleta,Comuna 2,"Para entregar los materiales, éstos deben estar limpios y secos"
-58.3821893604877,-34.5952333112645,93,Metrobus,Totem Via Publica,totem_via_publica,Papel / Cartón / Vidrio / Metal / Plástico / Tetra-brik / Telgopor,"Lunes a Domingo, las 24 hs.",Amanecer,9 de Julio y Santa Fe,0,,9 DE JULIO AV. y SANTA FE AV.,Retiro,Comuna 1,"Para entregar los materiales, éstos deben estar limpios y secos"
-58.39678188111301,-34.5880278247076,94,Plaza Emilio Mitre,Punto Verde Especial,punto_verde_especial,Aparatos de informática y comunicación (hasta 3 unid. y accesorios) /pequeños electrodomésticos (hasta 3 un.)/ papel / cartón / metal / vidrio / plástico / telgopor / tetra-brik / Aceite Vegetal usado,Miércoles a Domingos de 11 a 19hs.,,Av. General Las Heras,0,Cantilo,LAS HERAS GENERAL AV. y CANTILO,Recoleta,Comuna 2,"Para entregar los materiales, éstos deben estar limpios y secos - Aceite vegetal usado (frío y en envase cerrado de plástico)"
-58.39144238100779,-34.5987645281686,95,Plaza Petronila Rodriguez,Punto Verde Con Atención,punto_verde_con_atencion,Papel / Cartón / Vidrio / Metal / Plástico / Tetra-brik / Telgopor,Miércoles a Domingos de 11 a 19hs.,,Rodriguez Peña,0,Paraguay,RODRIGUEZ PEÑA y PARAGUAY,Recoleta,Comuna 2,"Para entregar los materiales, éstos deben estar limpios y secos"
-58.40854450938151,-34.6261342829812,96,Plaza Martín Fierro,Punto Verde Especial,punto_verde_especial,Aparatos de informática y comunicación (hasta 3 unid. y accesorios) /pequeños electrodomésticos (hasta 3 un.)/ papel / cartón / metal / vidrio / plástico / telgopor / tetra-brik / Aceite Vegetal usado,Miércoles a Domingos de 11 a 19hs.,,General Urquiza,0,Cochabamba,"URQUIZA, GRAL. y COCHABAMBA",San Cristobal,Comuna 3,"Para entregar los materiales, éstos deben estar limpios y secos - Aceite vegetal usado (frío y en envase cerrado de plástico)"
-58.3965786979561,-34.6281991813648,97,Polo Circo,Punto Verde Especial,punto_verde_especial,Aparatos de informática y comunicación (hasta 3 unid. y accesorios) /pequeños electrodomésticos (hasta 3 un.)/ papel / cartón / metal / vidrio / plástico / telgopor / tetra-brik / Aceite Vegetal usado,Miércoles a Domingos de 11 a 19hs.,,Av. Juan de Garay,0,Pichincha,"GARAY, JUAN DE AV. y PICHINCHA",Parque Patricios,Comuna 4,"Para entregar los materiales, éstos deben estar limpios y secos - Aceite vegetal usado (frío y en envase cerrado de plástico)"
-58.3887439890382,-34.6508854106456,98,Parque Leonardo Pereyra,Punto Verde Con Atención,punto_verde_con_atencion,Papel / Cartón / Vidrio / Metal / Plástico / Tetra-brik / Telgopor,Miércoles a Domingos de 11 a 19hs.,,Velez Sarsfield,0,Iriarte,"VELEZ SARSFIELD AV. y IRIARTE, GRAL. AV.",Barracas,Comuna 4,"Para entregar los materiales, éstos deben estar limpios y secos"
-58.457420717427,-34.6218974414641,100,Plaza Ángel Gris,Punto Verde Con Atención,punto_verde_con_atencion,Papel / Cartón / Vidrio / Metal / Plástico / Tetra-brik / Telgopor,Miércoles a Domingos de 11 a 19hs.,,Av. Avellaneda,0,Calcena,AVELLANEDA AV. y CALCENA,Flores,Comuna 7,"Para entregar los materiales, éstos deben estar limpios y secos"
-58.50081355582461,-34.5902403709877,101,Plaza Martín Rodríguez,Punto Verde Con Atención,punto_verde_con_atencion,Papel / Cartón / Vidrio / Metal / Plástico / Tetra-brik / Telgopor,Miércoles a Domingos de 11 a 19hs.,,Habana,0,Argerich,HABANA y ARGERICH,Villa Pueyrredon,Comuna 12,"Para entregar los materiales, éstos deben estar limpios y secos"
-58.4750861374504,-34.573026528670304,102,Plaza Zapiola,Punto Verde Con Atención,punto_verde_con_atencion,Papel / Cartón / Vidrio / Metal / Plástico / Tetra-brik / Telgopor,Miércoles a Domingos de 11 a 19hs.,,Juramento,0,Donado,JURAMENTO y DONADO,Villa Urquiza,Comuna 12,"Para entregar los materiales, éstos deben estar limpios y secos"
-58.4447765395503,-34.5809404325573,103,Plaza Mafalda,Punto Verde Con Atención,punto_verde_con_atencion,Papel / Cartón / Vidrio / Metal / Plástico / Tetra-brik / Telgopor / Aceite vegetal usado,Miércoles a Domingos de 11 a 19hs.,,Conde,0,Concepción Arenal,"CONDE y ARENAL, CONCEPCION",Colegiales,Comuna 13,"Para entregar los materiales, éstos deben estar limpios y secos"
-58.4046071649441,-34.5764724874776,104,Plaza República de Perú,Punto Verde Con Atención,punto_verde_con_atencion,Papel / Cartón / Vidrio / Metal / Plástico / Tetra-brik / Telgopor,Miércoles a Domingos de 11 a 19hs.,,Av. Figueroa Alcorta,0,Jeronimo Salguero,"FIGUEROA ALCORTA, PRES. AV. y SALGUERO, JERONIMO",Palermo,Comuna 14,"Para entregar los materiales, éstos deben estar limpios y secos"
-58.3817371042414,-34.6170731300201,106,UADE,Punto Verde De Interior (Totem),punto_verde_de_interior_totem,Papel / Cartón / Vidrio / Metal / Plástico / Tetra-brik / Telgopor,Horario de atención del edificio en el que está instalado,,Lima,775,,LIMA 775,Monserrat,Comuna 1,"Para entregar los materiales, éstos deben estar limpios y secos"
-58.3771863713726,-34.5918806519458,107,"E.T. Nº 12 D.E. 01 ""Libertador General de San Martin""",Punto Verde De Interior (Totem),punto_verde_de_interior_totem,Papel / Cartón / Vidrio / Metal / Plástico / Tetra-brik / Telgopor,Horario de atención del edificio en el que está instalado,,Avda. del Libertador,238,,DEL LIBERTADOR AV. 238,Retiro,Comuna 1,"Para entregar los materiales, éstos deben estar limpios y secos"
-58.3745476860213,-34.616749059091,109,Luis A. Huergo - Nivel Secundario,Punto Verde De Interior (Totem),punto_verde_de_interior_totem,Papel / Cartón / Vidrio / Metal / Plástico / Tetra-brik / Telgopor,Horario de atención del edificio en el que está instalado,,Peru,759,,PERU 759,San Telmo,Comuna 1,"Para entregar los materiales, éstos deben estar limpios y secos"
-58.36658071781999,-34.6184733699735,110,DGREC,Punto Verde De Interior (Totem),punto_verde_de_interior_totem,Papel / Cartón / Vidrio / Metal / Plástico / Tetra-brik / Telgopor,Horario de atención del edificio en el que está instalado,,Av. Ingeniero Huergo,949,,"HUERGO, ING. AV. 949",San Telmo,Comuna 1,"Para entregar los materiales, éstos deben estar limpios y secos"
-58.37502523692449,-34.6101650908019,111,INDEC,Punto Verde De Interior (Totem),punto_verde_de_interior_totem,Papel / Cartón / Vidrio / Metal / Plástico / Tetra-brik / Telgopor,Horario de atención del edificio en el que está instalado,,Av. Julio a. Roca,609,,"ROCA, JULIO A., PRESIDENTE DIAGONAL SUR AV. 609",Monserrat,Comuna 1,"Para entregar los materiales, éstos deben estar limpios y secos"
-58.3751472391382,-34.610269745584304,113,INDEC,Punto Verde De Interior (Totem),punto_verde_de_interior_totem,Papel / Cartón / Vidrio / Metal / Plástico / Tetra-brik / Telgopor,Horario de atención del edificio en el que está instalado,,Av. Julio a. Roca,609,,"ROCA, JULIO A., PRESIDENTE DIAGONAL SUR AV. 609",Monserrat,Comuna 1,"Para entregar los materiales, éstos deben estar limpios y secos"
-58.388547402132396,-34.6042867394909,114,Teatro San Martín,Punto Verde De Interior (Totem),punto_verde_de_interior_totem,Papel / Cartón / Vidrio / Metal / Plástico / Tetra-brik / Telgopor,Horario de atención del edificio en el que está instalado,,Av. Corrientes,1530,,CORRIENTES AV. 1530,San Nicolas,Comuna 1,"Para entregar los materiales, éstos deben estar limpios y secos"
-58.3694034632504,-34.6040861653738,115,Centro Cultural Kirchner (CCK),Punto Verde De Interior (Totem),punto_verde_de_interior_totem,Papel / Cartón / Vidrio / Metal / Plástico / Tetra-brik / Telgopor,Horario de atención del edificio en el que está instalado,,Sarmiento,151,,SARMIENTO 151,San Nicolas,Comuna 1,"Para entregar los materiales, éstos deben estar limpios y secos"
-58.3683169971599,-34.6186195846285,116,Ministerio de Agroindustria,Punto Verde De Interior (Totem),punto_verde_de_interior_totem,Papel / Cartón / Vidrio / Metal / Plástico / Tetra-brik / Telgopor,Horario de atención del edificio en el que está instalado,,Paseo Colon,922,,PASEO COLON AV. 922,San Telmo,Comuna 1,"Para entregar los materiales, éstos deben estar limpios y secos"
-58.368311075738795,-34.6190342423535,117,Ministerio de Agroindustria,Punto Verde De Interior (Totem),punto_verde_de_interior_totem,Papel / Cartón / Vidrio / Metal / Plástico / Tetra-brik / Telgopor,Horario de atención del edificio en el que está instalado,,Paseo Colon,922,,PASEO COLON AV. 922,San Telmo,Comuna 1,"Para entregar los materiales, éstos deben estar limpios y secos"
-58.3858457632829,-34.5777704064935,118,Escuelas Villa,Punto Verde De Interior (Totem),punto_verde_de_interior_totem,Papel / Cartón / Vidrio / Metal / Plástico / Tetra-brik / Telgopor,Horario de atención del edificio en el que está instalado,,Ramon Castillo,1750,,"CASTILLO, RAMON S., PRES. AV. 1750",Retiro,Comuna 1,"Para entregar los materiales, éstos deben estar limpios y secos"
-58.369794321569394,-34.612040196394304,119,SENASA,Punto Verde De Interior (Totem),punto_verde_de_interior_totem,Papel / Cartón / Vidrio / Metal / Plástico / Tetra-brik / Telgopor,Horario de atención del edificio en el que está instalado,,Paseo Colon,367,,PASEO COLON AV. 367,Monserrat,Comuna 1,"Para entregar los materiales, éstos deben estar limpios y secos"
-58.369819757097204,-34.6114277241339,120,SENASA,Punto Verde De Interior (Totem),punto_verde_de_interior_totem,Papel / Cartón / Vidrio / Metal / Plástico / Tetra-brik / Telgopor,Horario de atención del edificio en el que está instalado,,Paseo Colon,315,,PASEO COLON AV. 315,Monserrat,Comuna 1,"Para entregar los materiales, éstos deben estar limpios y secos"
-58.38095968410279,-34.626379343408296,121,Plaza de la Constitución,Punto Verde Con Atención,punto_verde_con_atencion,Papel / Cartón / Vidrio / Metal / Plástico / Tetra-brik / Telgopor,Miércoles a Domingos de 11 a 19 hs.,,Lima,0,Av. Juan de Garay,"LIMA y GARAY, JUAN DE AV.",Constitucion,Comuna 1,"Para entregar los materiales, éstos deben estar limpios y secos"
-58.397925720697096,-34.5999282384497,122,Facultad de Ciencias Economicas UBA,Punto Verde De Interior (Totem),punto_verde_de_interior_totem,Papel / Cartón / Vidrio / Metal / Plástico / Tetra-brik / Telgopor,Horario de atención del edificio en el que está instalado,,Av. Cordoba,2122,,CORDOBA AV. 2122,Balvanera,Comuna 3,"Para entregar los materiales, éstos deben estar limpios y secos"
-58.41527627270229,-34.5968249453107,123,EPC Nº 13 D.E. 2 Escuela República Islámica de Irán,Punto Verde De Interior (Totem),punto_verde_de_interior_totem,Papel / Cartón / Vidrio / Metal / Plástico / Tetra-brik / Telgopor,Horario de atención del edificio en el que está instalado,,José Antonio Cabrera,3484,,"CABRERA, JOSE A. 3484",Recoleta,Comuna 2,"Para entregar los materiales, éstos deben estar limpios y secos"
-58.37752803076079,-34.63924249556,124,Vea Barracas,Punto Verde De Interior (Totem),punto_verde_de_interior_totem,Papel / Cartón / Vidrio / Metal / Plástico / Tetra-brik / Telgopor,Horario de atención del edificio en el que está instalado,,Herrera,813,,HERRERA 813,Barracas,Comuna 4,"Para entregar los materiales, éstos deben estar limpios y secos"
-58.3937483970251,-34.623731337712606,125,Comuna 3,Punto Verde De Interior (Totem),punto_verde_de_interior_totem,Papel / Cartón / Vidrio / Metal / Plástico / Tetra-brik / Telgopor,Horario de atención del edificio en el que está instalado,,Sarandí,1273,,SARANDI 1273,San Cristobal,Comuna 3,"Para entregar los materiales, éstos deben estar limpios y secos"
-58.4055508700678,-34.611845942483804,126,"Liceo Nº 10 D.E. 06 ""Ricardo Rojas""",Punto Verde De Interior (Totem),punto_verde_de_interior_totem,Papel / Cartón / Vidrio / Metal / Plástico / Tetra-brik / Telgopor,Horario de atención del edificio en el que está instalado,,Jujuy,150,,JUJUY AV. 150,Balvanera,Comuna 3,"Para entregar los materiales, éstos deben estar limpios y secos
"
-58.394631560892805,-34.6245472838561,127,Fundación Nueva Generación del Deporte,Punto Verde De Interior (Totem),punto_verde_de_interior_totem,Papel / Cartón / Vidrio / Metal / Plástico / Tetra-brik / Telgopor,Horario de atención del edificio en el que está instalado,,Rincon,1328,,RINCON 1328,San Cristobal,Comuna 3,"Para entregar los materiales, éstos deben estar limpios y secos"
-58.4180255553839,-34.5629574474406,128,Club Alemán de Equitación,Punto Verde De Interior (Totem),punto_verde_de_interior_totem,Papel / Cartón / Vidrio / Metal / Plástico / Tetra-brik / Telgopor,Horario de atención del edificio en el que está instalado,,DORREGO AV.,4045,,DORREGO AV. 4045,Palermo,Comuna 14,"Para entregar los materiales, éstos deben estar limpios y secos"
-58.3971126299119,-34.6071140361298,129,Club Vasco Argentino Gure Echea,Punto Verde De Interior (Totem),punto_verde_de_interior_totem,Papel / Cartón / Vidrio / Metal / Plástico / Tetra-brik / Telgopor,Horario de atención del edificio en el que está instalado,,"PERON, JUAN DOMINGO, TTE. GENERAL",2143,,"PERON, JUAN DOMINGO, TTE. GENERAL 2143",Balvanera,Comuna 3,"Para entregar los materiales, éstos deben estar limpios y secos"
-58.4120276666914,-34.6204401187305,130,EMUI,Punto Verde De Interior (Totem),punto_verde_de_interior_totem,Papel / Cartón / Vidrio / Metal / Plástico / Tetra-brik / Telgopor,Horario de atención del edificio en el que está instalado,,INDEPENDENCIA AV.,3277,,,,,"Para entregar los materiales, éstos deben estar limpios y secos"
-58.399797305480696,-34.6109584058,131,DGAI,Punto Verde De Interior (Totem),punto_verde_de_interior_totem,Papel / Cartón / Vidrio / Metal / Plástico / Tetra-brik / Telgopor,Horario de atención del edificio en el que está instalado,,"YRIGOYEN, HIPOLITO",2346,,,,,"Para entregar los materiales, éstos deben estar limpios y secos"
-58.4113331249665,-34.6247437969933,132,Espacio Cultural Julián Centeya,Punto Verde De Interior (Totem),punto_verde_de_interior_totem,Papel / Cartón / Vidrio / Metal / Plástico / Tetra-brik / Telgopor,Horario de atención del edificio en el que está instalado,,SAN JUAN AV.,3255,,,,,"Para entregar los materiales, éstos deben estar limpios y secos"
-58.415999074084304,-34.651949471180004,133,Plaza Nueva Pompeya,Punto Verde Con Atención,punto_verde_con_atencion,Papel / Cartón / Vidrio / Metal / Plástico / Tetra-brik / Telgopor,Miércoles a Domingos de 11 a 19hs.,,SAENZ AV.,0,TRAFUL,,,,"Para entregar los materiales, éstos deben estar limpios y secos
"
-58.3555503171474,-34.634498398733896,134,Plaza Solís,Punto Verde Con Atención,punto_verde_con_atencion,Papel / Cartón / Vidrio / Metal / Plástico / Tetra-brik / Telgopor,Miércoles a Domingos de 11 a 19 hs.,,SUAREZ,0,"BRIN, MINISTRO",,,,"Para entregar los materiales, éstos deben estar limpios y secos"
-58.367033935356396,-34.6402364222198,135,Plaza Matheu,Punto Verde Con Atención,punto_verde_con_atencion,Papel / Cartón / Vidrio / Metal / Plástico / Tetra-brik / Telgopor,Miércoles a Domingos de 11 a 19 hs.,,"ARAOZ DE LAMADRID, GREGORIO, GRAL.",1050,,,,,"Para entregar los materiales, éstos deben estar limpios y secos"
-58.3765026407219,-34.6442344490368,136,Plaza Herrera,Punto Verde Con Atención,punto_verde_con_atencion,Papel / Cartón / Vidrio / Metal / Plástico / Tetra-brik / Telgopor,Miércoles a Domingos de 11 a 19 hs.,,HERRERA,0,"QUINQUELA MARTIN, BENITO",,,,"Para entregar los materiales, éstos deben estar limpios y secos"
-58.461380236558504,-34.6509822636052,137,Huracan Predio La Quemita,Punto Verde De Interior (Totem),punto_verde_de_interior_totem,Papel / Cartón / Vidrio / Metal / Plástico / Tetra-brik / Telgopor,Horario de atención del edificio en el que está instalado,,"ACOSTA, MARIANO",1981,,,,,"Para entregar los materiales, éstos deben estar limpios y secos"
-58.461014803772,-34.6513653691679,138,Huracán,Punto Verde De Interior (Totem),punto_verde_de_interior_totem,Papel / Cartón / Vidrio / Metal / Plástico / Tetra-brik / Telgopor,Horario de atención del edificio en el que está instalado,,"ACOSTA, MARIANO",1981,,,,,"Para entregar los materiales, éstos deben estar limpios y secos"
-58.3565484190442,-34.6288875839609,139,Usina del Arte,Punto Verde De Interior (Totem),punto_verde_de_interior_totem,Papel / Cartón / Vidrio / Metal / Plástico / Tetra-brik / Telgopor,Horario de atención del edificio en el que está instalado,,"CAFFARENA, AGUSTIN R.",1,,,,,"Para entregar los materiales, éstos deben estar limpios y secos"
-58.408993656791495,-34.644118112982696,140,Escuela Integral Interdisciplinaria Nº 05 D.E. 5,Punto Verde De Interior (Totem),punto_verde_de_interior_totem,Papel / Cartón / Vidrio / Metal / Plástico / Tetra-brik / Telgopor,Horario de atención del edificio en el que está instalado,,"CORTEJARENA, JOSE A.",3350,,,,,"Para entregar los materiales, éstos deben estar limpios y secos"
-58.37872867279199,-34.6433067782915,141,"ET Nº10 D.E. 5 ""Fray Luis Beltrán""",Punto Verde De Interior (Totem),punto_verde_de_interior_totem,Papel / Cartón / Vidrio / Metal / Plástico / Tetra-brik / Telgopor,Horario de atención del edificio en el que está instalado,,"ARAOZ DE LAMADRID, GREGORIO, GRAL.",1943,,,,,"Para entregar los materiales, éstos deben estar limpios y secos"
-58.373944644187,-34.6545478627232,142,División de Elementos de Seguridad y Defensa de Policia de la Ciudad,Punto Verde De Interior (Totem),punto_verde_de_interior_totem,Papel / Cartón / Vidrio / Metal / Plástico / Tetra-brik / Telgopor,Horario de atención del edificio en el que está instalado,,HERRERA,2424,,,,,"Para entregar los materiales, éstos deben estar limpios y secos"
-58.37398372136129,-34.654729980940004,143,División de Elementos de Seguridad y Defensa de Policia de la Ciudad,Punto Verde De Interior (Totem),punto_verde_de_interior_totem,Papel / Cartón / Vidrio / Metal / Plástico / Tetra-brik / Telgopor,Horario de atención del edificio en el que está instalado,,Herrera,2424,,HERRERA 2424,Barracas,Comuna 4,"Para entregar los materiales, éstos deben estar limpios y secos"
-58.4059435950807,-34.6413893266297,144,Escuelas Villa,Punto Verde De Interior (Totem),punto_verde_de_interior_totem,Papel / Cartón / Vidrio / Metal / Plástico / Tetra-brik / Telgopor,Horario de atención del edificio en el que está instalado,,Los patos,3080,,LOS PATOS 3080,Parque Patricios,Comuna 4,"Para entregar los materiales, éstos deben estar limpios y secos"
-58.39391294907271,-34.6516222068863,145,CLUB SOCIAL Y CULTURAL JUVENTUD UNIDA,Punto Verde De Interior (Totem),punto_verde_de_interior_totem,Papel / Cartón / Vidrio / Metal / Plástico / Tetra-brik / Telgopor,Horario de atención del edificio en el que está instalado,,"IRIARTE, GRAL. AV.",3276,,,,,"Para entregar los materiales, éstos deben estar limpios y secos"
-58.402386576401206,-34.5983374376948,146,"EPC Nº 23 D.E. 1 ""BERNARDINO RIVADAVIA""",Punto Verde De Interior (Totem),punto_verde_de_interior_totem,Papel / Cartón / Vidrio / Metal / Plástico / Tetra-brik / Telgopor,Horario de atención del edificio en el que está instalado,,Larrea,854,,LARREA 854,Recoleta,Comuna 2,"Para entregar los materiales, éstos deben estar limpios y secos"
-58.413274911468,-34.6359199857677,147,EXO,Punto Verde De Interior (Totem),punto_verde_de_interior_totem,Papel / Cartón / Vidrio / Metal / Plástico / Tetra-brik / Telgopor,Horario de atención del edificio en el que está instalado,,CHICLANA AV.,3444,,,,,"Para entregar los materiales, éstos deben estar limpios y secos"
-58.414638298685105,-34.6100417821339,148,FADEEAC,Punto Verde De Interior (Totem),punto_verde_de_interior_totem,Papel / Cartón / Vidrio / Metal / Plástico / Tetra-brik / Telgopor,Horario de atención del edificio en el que está instalado,,SANCHEZ DE BUSTAMANTE,54,,,,,"Para entregar los materiales, éstos deben estar limpios y secos"
-58.440529199623,-34.6160565115123,149,Plaza Giordano Bruno,Punto Verde Con Atención,punto_verde_con_atencion,Papel / Cartón / Vidrio / Metal / Plástico / Tetra-brik / Telgopor,Miércoles a Domingos de 11 a 19 hs.,,GIORDANO,0,NEUQUEN,,,,"Para entregar los materiales, éstos deben estar limpios y secos"
-58.439621739743004,-34.6106967604939,150,JUMBO CABALLITO,Punto Verde De Interior (Totem),punto_verde_de_interior_totem,Papel / Cartón / Vidrio / Metal / Plástico / Tetra-brik / Telgopor,Horario de atención del edificio en el que está instalado,,Av. Acoyte,702,,ACOYTE AV. 702,Caballito,Comuna 6,"Para entregar los materiales, éstos deben estar limpios y secos"
-58.4471754188456,-34.6248687636232,151,Vea Caballito,Punto Verde De Interior (Totem),punto_verde_de_interior_totem,Papel / Cartón / Vidrio / Metal / Plástico / Tetra-brik / Telgopor,Horario de atención del edificio en el que está instalado,,Alberdi,1363,,"ALBERDI, JUAN BAUTISTA AV. 1363",Caballito,Comuna 6,"Para entregar los materiales, éstos deben estar limpios y secos"
-58.4352355913796,-34.6119124806784,152,Club Premier,Punto Verde De Interior (Totem),punto_verde_de_interior_totem,Papel / Cartón / Vidrio / Metal / Plástico / Tetra-brik / Telgopor,Horario de atención del edificio en el que está instalado,,Campichuelo,472,,CAMPICHUELO 472,Caballito,Comuna 6,"Para entregar los materiales, éstos deben estar limpios y secos
"
-58.4462929998569,-34.6271719092038,153,Canada School,Punto Verde De Interior (Totem),punto_verde_de_interior_totem,Papel / Cartón / Vidrio / Metal / Plástico / Tetra-brik / Telgopor,Horario de atención del edificio en el que está instalado,,"GOYENA, PEDRO AV.",1345,,,,,"Para entregar los materiales, éstos deben estar limpios y secos"
-58.460669315907005,-34.6111101835037,154,Carrefour Caballito,Punto Verde De Interior (Totem),punto_verde_de_interior_totem,Papel / Cartón / Vidrio / Metal / Plástico / Tetra-brik / Telgopor,Horario de atención del edificio en el que está instalado,,"ALVAREZ, DONATO, TTE. GRAL.",1351,,,,,"Para entregar los materiales, éstos deben estar limpios y secos"
-58.4553639903558,-34.632591656053,155,Plaza de la Misericordia,Punto Verde Con Atención,punto_verde_con_atencion,Papel / Cartón / Vidrio / Metal / Plástico / Tetra-brik / Telgopor,Miércoles a Domingos de 11 a 19 hs.,,LAUTARO,0,"BILBAO, FRANCISCO",,,,"Para entregar los materiales, éstos deben estar limpios y secos"
-58.4635811861306,-34.634755459101896,156,Plaza 11 de Noviembre de 1859,Punto Verde Con Atención,punto_verde_con_atencion,Papel / Cartón / Vidrio / Metal / Plástico / Tetra-brik / Telgopor,Miércoles a Domingos de 11 a 19 hs.,,DIRECTORIO AV.,0,ITALIA,,,,"Para entregar los materiales, éstos deben estar limpios y secos"
-58.4635617660853,-34.6338240318414,157,EPC Nº 8 D.E. 11 PEDRO ANTONIO CERVIÑO,Punto Verde De Interior (Totem),punto_verde_de_interior_totem,Papel / Cartón / Vidrio / Metal / Plástico / Tetra-brik / Telgopor,Horario de atención del edificio en el que está instalado,,Varela,358,,VARELA 358,Flores,Comuna 7,"Para entregar los materiales, éstos deben estar limpios y secos"
-58.4732739489379,-34.6355387818604,158,"E.T. Nº 37 D.E. 11 ""Hogar Naval Stella Maris""",Punto Verde De Interior (Totem),punto_verde_de_interior_totem,Papel / Cartón / Vidrio / Metal / Plástico / Tetra-brik / Telgopor,Horario de atención del edificio en el que está instalado,,PERGAMINO,251,,,,,"Para entregar los materiales, éstos deben estar limpios y secos"
-58.4685674811959,-34.6418222306295,159,Club Pedro Echagüe,Punto Verde De Interior (Totem),punto_verde_de_interior_totem,Papel / Cartón / Vidrio / Metal / Plástico / Tetra-brik / Telgopor,Horario de atención del edificio en el que está instalado,,PORTELA,836,,,,,"Para entregar los materiales, éstos deben estar limpios y secos"
-58.462580055765294,-34.6360404996319,160,Ente de Higiene Urbana,Punto Verde De Interior (Totem),punto_verde_de_interior_totem,Papel / Cartón / Vidrio / Metal / Plástico / Tetra-brik / Telgopor,Horario de atención del edificio en el que está instalado,,VARELA,555,,,,,"Para entregar los materiales, éstos deben estar limpios y secos"
-58.4469488385995,-34.644950343146604,161,EMUI,Punto Verde De Interior (Totem),punto_verde_de_interior_totem,Papel / Cartón / Vidrio / Metal / Plástico / Tetra-brik / Telgopor,Horario de atención del edificio en el que está instalado,,Av. Castañares,2350,,CASTAÑARES AV. 2350,Flores,Comuna 7,"Para entregar los materiales, éstos deben estar limpios y secos"
-58.44106167084829,-34.632226333200194,162,Subsede 7,Punto Verde De Interior (Totem),punto_verde_de_interior_totem,Papel / Cartón / Vidrio / Metal / Plástico / Tetra-brik / Telgopor,Horario de atención del edificio en el que está instalado,,Emilio Mitre,956,,"MITRE, EMILIO 956",Parque Chacabuco,Comuna 7,"Para entregar los materiales, éstos deben estar limpios y secos"
-58.4447338868602,-34.6332448350037,163,Centro Cultural Adams,Punto Verde De Interior (Totem),punto_verde_de_interior_totem,Papel / Cartón / Vidrio / Metal / Plástico / Tetra-brik / Telgopor,Horario de atención del edificio en el que está instalado,,"PERON, EVA AV.",1400,,,,,"Para entregar los materiales, éstos deben estar limpios y secos"
-58.4768387420531,-34.6773889623405,164,Estación Lugano,Punto Verde Especial,punto_verde_especial,Aparatos de informática y comunicación (hasta 3 unid. y accesorios) /pequeños electrodomésticos (hasta 3 un.)/ papel / cartón / metal / vidrio / plástico / telgopor / tetra-brik / Aceite Vegetal usado,Miércoles a Domingos de 11 a 19 hs.,,Delfin Gallo,0,Martiniano Leguizamon,"GALLO, DELFIN y LEGUIZAMON, MARTINIANO",Villa Lugano,Comuna 8,"Para entregar los materiales, éstos deben estar limpios y secos - Aceite vegetal usado (frío y en envase cerrado de plástico)."
-58.46568531351561,-34.6835708942023,165,Lugano 1 y 2,Punto Verde Con Atención,punto_verde_con_atencion,Papel / Cartón / Vidrio / Metal / Plástico / Tetra-brik / Telgopor,Miércoles a Domingos de 11 a 19 hs.,,"OLASCOAGA, MANUEL JOSE, CNEL.",5040,,,,,"Para entregar los materiales, éstos deben estar limpios y secos"
-58.46932176671449,-34.6648178156257,166,APRA,Punto Verde De Interior (Totem),punto_verde_de_interior_totem,Papel / Cartón / Vidrio / Metal / Plástico / Tetra-brik / Telgopor,Horario de atención del edificio en el que está instalado,,ESCALADA AV.,0,CASTAÑARES AV.,,,,"Para entregar los materiales, éstos deben estar limpios y secos"
-58.440503004623395,-34.6557123492806,167,Escuela 23,Punto Verde De Interior (Totem),punto_verde_de_interior_totem,Papel / Cartón / Vidrio / Metal / Plástico / Tetra-brik / Telgopor,Horario de atención del edificio en el que está instalado,,"CHILAVERT, MARTINIANO, CORONEL",2690,,,,,"Para entregar los materiales, éstos deben estar limpios y secos"
-58.5272246360147,-34.6509767253947,168,Plaza Sargento Cabral,Punto Verde Con Atención,punto_verde_con_atencion,Papel / Cartón / Vidrio / Metal / Plástico / Tetra-brik / Telgopor,Miércoles a Domingos de 11 a 19 hs.,,"SUAREZ, JOSE LEON",0,MARTINEZ DE HOZ,,,,"Para entregar los materiales, éstos deben estar limpios y secos"
-58.5145011348172,-34.664191050835,169,Carrefour Mataderos,Punto Verde Con Atención,punto_verde_con_atencion,Papel / Cartón / Vidrio / Metal / Plástico / Tetra-brik / Telgopor,Miércoles a Domingos de 11 a 19 hs.,,"PAZ, GRAL. AV.",12950,,,,,"Para entregar los materiales, éstos deben estar limpios y secos"
-58.523420254902,-34.6451494567094,170,Plaza Sarmiento,Punto Verde Con Atención,punto_verde_con_atencion,Papel / Cartón / Vidrio / Metal / Plástico / Tetra-brik / Telgopor,Miércoles a Domingos de 11 a 19 hs.,,Cosquin,0,Humaita,,,,"Para entregar los materiales, éstos deben estar limpios y secos"
-58.5194288903226,-34.6337256294711,171,Vélez Sarfield,Punto Verde De Interior (Totem),punto_verde_de_interior_totem,Papel / Cartón / Vidrio / Metal / Plástico / Tetra-brik / Telgopor,Horario de atención del edificio en el que está instalado,,Juan b Justo,9200,,"JUSTO, JUAN B. AV. 9200",Liniers,Comuna 9,"Para entregar los materiales, éstos deben estar limpios y secos"
-58.519908674544,-34.633612725639,172,Vélez Sarfield,Punto Verde De Interior (Totem),punto_verde_de_interior_totem,Papel / Cartón / Vidrio / Metal / Plástico / Tetra-brik / Telgopor,Horario de atención del edificio en el que está instalado,,"JUSTO, JUAN B. AV.",9200,,,,,"Para entregar los materiales, éstos deben estar limpios y secos"
-58.505145425138,-34.6531586515719,173,Liceo Nº 08 D.E. 13 Esteban Echeverría DE 13,Punto Verde De Interior (Totem),punto_verde_de_interior_totem,Papel / Cartón / Vidrio / Metal / Plástico / Tetra-brik / Telgopor,Horario de atención del edificio en el que está instalado,,Murguiondo,1568,,MURGUIONDO 1568,Mataderos,Comuna 9,"Para entregar los materiales, éstos deben estar limpios y secos"
-58.514882143773896,-34.6435070961294,174,ASOCIACION DE FOMENTO SANTIAGO DE LINIERS,Punto Verde De Interior (Totem),punto_verde_de_interior_totem,Papel / Cartón / Vidrio / Metal / Plástico / Tetra-brik / Telgopor,Horario de atención del edificio en el que está instalado,,Caaguazú,6151,,CAAGUAZU 6151,Liniers,Comuna 9,"Para entregar los materiales, éstos deben estar limpios y secos"
-58.521353161434,-34.63655961278361,175,Club del Personal de Dirección del Ferrocarril Domingo Faustino Sarmiento,Punto Verde De Interior (Totem),punto_verde_de_interior_totem,Papel / Cartón / Vidrio / Metal / Plástico / Tetra-brik / Telgopor,Horario de atención del edificio en el que está instalado,,RESERVISTAS ARGENTINOS,219,,,,,"Para entregar los materiales, éstos deben estar limpios y secos"
-58.475888886353296,-34.644968981504995,176,Parque Avellaneda Centro Cultural,Punto Verde De Interior (Totem),punto_verde_de_interior_totem,Papel / Cartón / Vidrio / Metal / Plástico / Tetra-brik / Telgopor,Horario de atención del edificio en el que está instalado,,LACARRA AV.,0,"BILBAO, FRANCISCO AV.",,,,"Para entregar los materiales, éstos deben estar limpios y secos"
-58.476532446711204,-34.645104125658,177,Parque Avellaneda Casona,Punto Verde Compactador,punto_verde_compactador,Papel / Cartón / Vidrio / Metal / Plástico / Tetra-brik / Telgopor,Horario de atención del edificio en el que está instalado,,LACARRA AV.,0,"BILBAO, FRANCISCO AV.",,,,"Para entregar los materiales, éstos deben estar limpios y secos
"
-58.525558629056604,-34.6164893765444,178,Plaza Las Toscaneras de Villa Real,Punto Verde Con Atención,punto_verde_con_atencion,Papel / Cartón / Vidrio / Metal / Plástico / Tetra-brik / Telgopor,Miércoles a Domingos de 11 a 19 hs.,,"LISTA, RAMON, CORONEL",0,MOLIERE,,,,"Para entregar los materiales, éstos deben estar limpios y secos
"
-58.521604126390294,-34.6332772855448,179,Carrefour J. B. Justo,Punto Verde Con Atención,punto_verde_con_atencion,Papel / Cartón / Vidrio / Metal / Plástico / Tetra-brik / Telgopor,Miércoles a Domingos de 11 a 19 hs.,,Av. Álvarez Jonte,6383,,ALVAREZ JONTE AV. 6383,Liniers,Comuna 9,"Para entregar los materiales, éstos deben estar limpios y secos
"
-58.4976312780352,-34.6175493766793,180,Plaza Monte Castro,Punto Verde Con Atención,punto_verde_con_atencion,Papel / Cartón / Vidrio / Metal / Plástico / Tetra-brik / Telgopor,Miércoles a Domingos de 11 a 19 hs.,,GUALEGUAYCHU,0,MIRANDA,,,,"Para entregar los materiales, éstos deben estar limpios y secos"
-58.50837643187489,-34.619168963502,181,Plaza Monseñor Fermin Lafitte,Punto Verde Con Atención,punto_verde_con_atencion,Papel / Cartón / Vidrio / Metal / Plástico / Tetra-brik / Telgopor,Miércoles a Domingos de 11 a 19 hs.,,Allende,0,Arregui,,,,"Para entregar los materiales, éstos deben estar limpios y secos"
-58.476401532237,-34.637417536648606,182,"EPC Nº 19 D.E. 11 ""FRAGATA A.R.A.LIBERTAD""",Punto Verde De Interior (Totem),punto_verde_de_interior_totem,Papel / Cartón / Vidrio / Metal / Plástico / Tetra-brik / Telgopor,Horario de atención del edificio en el que está instalado,,José Bonifacio,3650,,"BONIFACIO, JOSE 3650",Floresta,Comuna 10,"Para entregar los materiales, éstos deben estar limpios y secos"
-58.4817668572731,-34.6345907991708,183,"EPC Nº 3 D.E. 11 ""ANGELA MEDONE DE CAVIGLIA""",Punto Verde De Interior (Totem),punto_verde_de_interior_totem,Papel / Cartón / Vidrio / Metal / Plástico / Tetra-brik / Telgopor,Horario de atención del edificio en el que está instalado,,Mariano Acosta,45,,"ACOSTA, MARIANO AV. 45",Velez Sarsfield,Comuna 10,"Para entregar los materiales, éstos deben estar limpios y secos"
-58.525241191547,-34.621756956998894,184,Escuela Cristiana Evangélica Argentina - Primaria,Punto Verde De Interior (Totem),punto_verde_de_interior_totem,Papel / Cartón / Vidrio / Metal / Plástico / Tetra-brik / Telgopor,Horario de atención del edificio en el que está instalado,,Irigoyen,2150,,IRIGOYEN 2150,Villa Real,Comuna 10,"Para entregar los materiales, éstos deben estar limpios y secos"
-58.413110079659205,-34.594352816816894,185,Instituto Nuevo Guido Spano - Primaria,Punto Verde De Interior (Totem),punto_verde_de_interior_totem,Papel / Cartón / Vidrio / Metal / Plástico / Tetra-brik / Telgopor,Horario de atención del edificio en el que está instalado,,BILLINGHURST,1355,,,,,"Para entregar los materiales, éstos deben estar limpios y secos"
-58.4211347389761,-34.6282950172962,186,Fundación Nueva Generación del Deporte,Punto Verde De Interior (Totem),punto_verde_de_interior_totem,Papel / Cartón / Vidrio / Metal / Plástico / Tetra-brik / Telgopor,Horario de atención del edificio en el que está instalado,,"BOCAYUVA, QUINTINO",1241,,,,,"Para entregar los materiales, éstos deben estar limpios y secos"
-58.4904374847281,-34.6423753956472,187,Fundación Nueva Generación del Deporte,Punto Verde De Interior (Totem),punto_verde_de_interior_totem,Papel / Cartón / Vidrio / Metal / Plástico / Tetra-brik / Telgopor,Horario de atención del edificio en el que está instalado,,"ALBERDI, JUAN BAUTISTA AV.",4565,,,,,"Para entregar los materiales, éstos deben estar limpios y secos"
-58.49544533880779,-34.6237037069853,188,CLUB SOCIAL Y DEPORTIVO MITRE,Punto Verde De Interior (Totem),punto_verde_de_interior_totem,Papel / Cartón / Vidrio / Metal / Plástico / Tetra-brik / Telgopor,Horario de atención del edificio en el que está instalado,,SEGUROLA AV.,1332,,,,,"Para entregar los materiales, éstos deben estar limpios y secos"
-58.522443452473404,-34.6260210517828,189,Ateneo Popular Versailles,Punto Verde De Interior (Totem),punto_verde_de_interior_totem,Papel / Cartón / Vidrio / Metal / Plástico / Tetra-brik / Telgopor,Horario de atención del edificio en el que está instalado,,ROMA,950,,,,,"Para entregar los materiales, éstos deben estar limpios y secos"
-58.527242203174296,-34.6208453679222,190,Escuela Infantil Nº 04 D.E. 17Â°,Punto Verde De Interior (Totem),punto_verde_de_interior_totem,Papel / Cartón / Vidrio / Metal / Plástico / Tetra-brik / Telgopor,Horario de atención del edificio en el que está instalado,,Simbron,5855,,SIMBRON 5855,Villa Real,Comuna 10,"Para entregar los materiales, éstos deben estar limpios y secos"
-58.5228959230774,-34.6129960822181,191,Plaza El Maestro,Punto Verde Con Atención,punto_verde_con_atencion,Papel / Cartón / Vidrio / Metal / Plástico / Tetra-brik / Telgopor,Miércoles a Domingos de 11 a 19 hs.,,"BEIRO, FRANCISCO AV.",0,"CALDERON DE LA BARCA, PEDRO",,,,"Para entregar los materiales, éstos deben estar limpios y secos"
-58.5132257512159,-34.6069386433199,192,"EEEFL Nº3 D.E. Nº17 ""MARÍA DOLORES NAVALLES MIR DE TOBAR GARCIA""",Punto Verde De Interior (Totem),punto_verde_de_interior_totem,Papel / Cartón / Vidrio / Metal / Plástico / Tetra-brik / Telgopor,Horario de atención del edificio en el que está instalado,,"BEIRO, FRANCISCO AV.",4418,,,,,"Para entregar los materiales, éstos deben estar limpios y secos"
-58.48120266763989,-34.571089740085,193,Plaza Marcos Sastre,Punto Verde Con Atención,punto_verde_con_atencion,Papel / Cartón / Vidrio / Metal / Plástico / Tetra-brik / Telgopor,Miércoles a Domingos de 11 a 19 hs.,,MONROE,0,MILLER,,,,"Para entregar los materiales, éstos deben estar limpios y secos"
-58.4893220058591,-34.5649767533706,194,"Esc. Técnica Nº36 ""Alte. Guillermo Brown""",Punto Verde De Interior (Totem),punto_verde_de_interior_totem,Papel / Cartón / Vidrio / Metal / Plástico / Tetra-brik / Telgopor,Horario de atención del edificio en el que está instalado,,Galván,3300,,GALVAN 3300,Villa Urquiza,Comuna 12,"Para entregar los materiales, éstos deben estar limpios y secos"
-58.510729291743296,-34.5779114229387,195,CLUB CULTURAL Y DEPORTIVO 17 DE AGOSTO,Punto Verde De Interior (Totem),punto_verde_de_interior_totem,Papel / Cartón / Vidrio / Metal / Plástico / Tetra-brik / Telgopor,Horario de atención del edificio en el que está instalado,,ALBARELLOS AV.,2935,,,,,"Para entregar los materiales, éstos deben estar limpios y secos"
-58.4946654852707,-34.5775342462017,196,Carrefour Villa Urquiza,Punto Verde De Interior (Totem),punto_verde_de_interior_totem,Papel / Cartón / Vidrio / Metal / Plástico / Tetra-brik / Telgopor,Horario de atención del edificio en el que está instalado,,ROOSEVELT FRANKLIN D. AV.,5749,,,,,"Para entregar los materiales, éstos deben estar limpios y secos"
-58.4583179730124,-34.5773067804736,197,Plaza San Miguel de Caricoits,Punto Verde Con Atención,punto_verde_con_atencion,Papel / Cartón / Vidrio / Metal / Plástico / Tetra-brik / Telgopor,Miércoles a Domingos de 11 a 19 hs.,,"LORETO, VIRREY",0,DELGADO,,,,"Para entregar los materiales, éstos deben estar limpios y secos"
-58.4618441458648,-34.5488121971092,198,Estación Nuñez,Punto Verde Con Atención,punto_verde_con_atencion,Papel / Cartón / Vidrio / Metal / Plástico / Tetra-brik / Telgopor,Miércoles a Domingos de 11 a 19 hs.,,GRECIA,0,"PEDRAZA, MANUELA",,,,"Para entregar los materiales, éstos deben estar limpios y secos"
-58.477373844994204,-34.5501422433264,199,Parque Saavedra,Punto Verde Con Atención,punto_verde_con_atencion,Papel / Cartón / Vidrio / Metal / Plástico / Tetra-brik / Telgopor,Miércoles a Domingos de 11 a 19 hs.,,GARCIA DEL RIO AV.,0,PINTO,,,,"Para entregar los materiales, éstos deben estar limpios y secos"
-58.4596878772975,-34.575344565769704,200,CARREFOUR MARKET COLEGIALES,Punto Verde De Interior (Totem),punto_verde_de_interior_totem,Papel / Cartón / Vidrio / Metal / Plástico / Tetra-brik / Telgopor,Horario de atención del edificio en el que está instalado,,Av. Elcano,3380,,ELCANO AV. 3380,Colegiales,Comuna 13,"Para entregar los materiales, éstos deben estar limpios y secos"
-58.465204400348796,-34.5530146064581,201,Carrefour Market,Punto Verde De Interior (Totem),punto_verde_de_interior_totem,Papel / Cartón / Vidrio / Metal / Plástico / Tetra-brik / Telgopor,Horario de atención del edificio en el que está instalado,,Av. Cabildo,3190,,CABILDO AV. 3190,Nuñez,Comuna 13,"Para entregar los materiales, éstos deben estar limpios y secos"
-58.4461426982277,-34.5564926663843,202,Instituto San Román - Nivel Secundario,Punto Verde De Interior (Totem),punto_verde_de_interior_totem,Papel / Cartón / Vidrio / Metal / Plástico / Tetra-brik / Telgopor,Horario de atención del edificio en el que está instalado,,Migueletes,2039,,MIGUELETES 2039,Belgrano,Comuna 13,"Para entregar los materiales, éstos deben estar limpios y secos"
-58.439178742364795,-34.5513339404419,203,Liceo Franco Argentino Jean Mermoz - Nivel Secundario,Punto Verde De Interior (Totem),punto_verde_de_interior_totem,Papel / Cartón / Vidrio / Metal / Plástico / Tetra-brik / Telgopor,Horario de atención del edificio en el que está instalado,,JURAMENTO,0,CASTAÑEDA,,,,"Para entregar los materiales, éstos deben estar limpios y secos"
-58.457042181196606,-34.5465519536082,204,Club Atlético de Comercio,Punto Verde De Interior (Totem),punto_verde_de_interior_totem,Papel / Cartón / Vidrio / Metal / Plástico / Tetra-brik / Telgopor,Horario de atención del edificio en el que está instalado,,Av. del Libertador,7199,,DEL LIBERTADOR AV. 7199,Nuñez,Comuna 13,"Para entregar los materiales, éstos deben estar limpios y secos"
-58.443437051104794,-34.5483859032087,205,SwisoArgentina,Punto Verde De Interior (Totem),punto_verde_de_interior_totem,Papel / Cartón / Vidrio / Metal / Plástico / Tetra-brik / Telgopor,Horario de atención del edificio en el que está instalado,,Monroe,801,,MONROE 801,Belgrano,Comuna 13,"Para entregar los materiales, éstos deben estar limpios y secos"
-58.443345809060794,-34.5585577508718,206,Club Atlético Excursionistas,Punto Verde De Interior (Totem),punto_verde_de_interior_totem,Papel / Cartón / Vidrio / Metal / Plástico / Tetra-brik / Telgopor,Horario de atención del edificio en el que está instalado,,Pampa,1376,,LA PAMPA 1376,Belgrano,Comuna 13,"Para entregar los materiales, éstos deben estar limpios y secos"
-58.410348403351,-34.5833365332319,208,Parque Las Heras,Punto Verde Con Atención,punto_verde_con_atencion,Papel / Cartón / Vidrio / Metal / Plástico / Tetra-brik / Telgopor,Miércoles a Domingos de 11 a 19 hs.,,Salguero,2450,,"SALGUERO, JERONIMO 2450",Palermo,Comuna 14,"Para entregar los materiales, éstos deben estar limpios y secos"
-58.421518824786304,-34.574407998881,209,A.C.A.,Punto Verde De Interior (Totem),punto_verde_de_interior_totem,Papel / Cartón / Vidrio / Metal / Plástico / Tetra-brik / Telgopor,Horario de atención del edificio en el que está instalado,,Godoy Cruz,0,Demaria,GODOY CRUZ y DEMARIA,Palermo,Comuna 14,"Para entregar los materiales, éstos deben estar limpios y secos"
-58.439302144295205,-34.5640677417524,210,Carrefour Market,Punto Verde De Interior (Totem),punto_verde_de_interior_totem,Papel / Cartón / Vidrio / Metal / Plástico / Tetra-brik / Telgopor,Horario de atención del edificio en el que está instalado,,"LACROZE, FEDERICO",1755,,"LACROZE, FEDERICO 1755",Palermo,Comuna 14,"Para entregar los materiales, éstos deben estar limpios y secos"
-58.41725379623071,-34.5918563206636,211,"EPC Nº4 D.E. Nº2 ""AMADEO JACQUE"" - INTENSIFICADA EN EDUCACIÁ“N FÃSICA",Punto Verde De Interior (Totem),punto_verde_de_interior_totem,Papel / Cartón / Vidrio / Metal / Plástico / Tetra-brik / Telgopor,Horario de atención del edificio en el que está instalado,,Soler,3929,,SOLER 3929,Palermo,Comuna 14,"Para entregar los materiales, éstos deben estar limpios y secos"
-58.4961190457909,-34.599353707427696,212,Instituto Evangélico Americano -Secundaria,Punto Verde De Interior (Totem),punto_verde_de_interior_totem,Papel / Cartón / Vidrio / Metal / Plástico / Tetra-brik / Telgopor,Horario de atención del edificio en el que está instalado,,Simbron,3160,,SIMBRON 3160,Villa Del Parque,Comuna 11,"Para entregar los materiales, éstos deben estar limpios y secos"
-58.4280061048784,-34.5599805772741,213,DGPLU,Punto Verde De Interior (Totem),punto_verde_de_interior_totem,Papel / Cartón / Vidrio / Metal / Plástico / Tetra-brik / Telgopor,Horario de atención del edificio en el que está instalado,,DE LOS OMBUES AV.,0,"BELLO, ANDRES",,,,"Para entregar los materiales, éstos deben estar limpios y secos"
-58.39797820428821,-34.5701589310257,214,Salguero FUTBOL,Punto Verde De Interior (Totem),punto_verde_de_interior_totem,Papel / Cartón / Vidrio / Metal / Plástico / Tetra-brik / Telgopor,Horario de atención del edificio en el que está instalado,,"OBLIGADO RAFAEL, AV.COSTANERA",1221,,,,,"Para entregar los materiales, éstos deben estar limpios y secos"
-58.397302275543005,-34.570510135180896,215,Salguero GOLF,Punto Verde De Interior (Totem),punto_verde_de_interior_totem,Papel / Cartón / Vidrio / Metal / Plástico / Tetra-brik / Telgopor,Horario de atención del edificio en el que está instalado,,"OBLIGADO RAFAEL, AV.COSTANERA",1221,,,,,"Para entregar los materiales, éstos deben estar limpios y secos"
-58.4035791498849,-34.6183365673522,216,"ET Nº 25 D.E. 6 ""Teniente Primero de Artillería Fray Luis Beltrán""",Punto Verde De Interior (Totem),punto_verde_de_interior_totem,Papel / Cartón / Vidrio / Metal / Plástico / Tetra-brik / Telgopor,Horario de atención del edificio en el que está instalado,,Jujuy,780,,JUJUY AV. 780,Balvanera,Comuna 3,"Para entregar los materiales, éstos deben estar limpios y secos"
-58.492592369760196,-34.5882935463871,217,Instituto Ntra. Sra. de la Unidad -Secundaria,Punto Verde De Interior (Totem),punto_verde_de_interior_totem,Papel / Cartón / Vidrio / Metal / Plástico / Tetra-brik / Telgopor,Horario de atención del edificio en el que está instalado,,Nueva York,2467,,NUEVA YORK 2467,Agronomia,Comuna 15,"Para entregar los materiales, éstos deben estar limpios y secos"
-58.4900411007915,-34.5912674639165,218,Inst. Parroquial Ntra. Sra. de la Unidad -Primaria,Punto Verde De Interior (Totem),punto_verde_de_interior_totem,Papel / Cartón / Vidrio / Metal / Plástico / Tetra-brik / Telgopor,Horario de atención del edificio en el que está instalado,,Navarro,2460,,NAVARRO 2460,Agronomia,Comuna 15,"Para entregar los materiales, éstos deben estar limpios y secos"
-58.4489123357977,-34.5925611337393,219,DGMYT,Punto Verde De Interior (Totem),punto_verde_de_interior_totem,Papel / Cartón / Vidrio / Metal / Plástico / Tetra-brik / Telgopor,Horario de atención del edificio en el que está instalado,,Guzman,19,,GUZMAN 19,Chacarita,Comuna 15,"Para entregar los materiales, éstos deben estar limpios y secos"
-58.4449115817904,-34.6051324960706,220,Polideportivo San Lorenzo,Punto Verde De Interior (Totem),punto_verde_de_interior_totem,Papel / Cartón / Vidrio / Metal / Plástico / Tetra-brik / Telgopor,Horario de atención del edificio en el que está instalado,,Antezana,340,,ANTEZANA 340,Villa Crespo,Comuna 15,"Para entregar los materiales, éstos deben estar limpios y secos"
-58.471287467200696,-34.5966386874867,221,DG de Salud Mental,Punto Verde De Interior (Totem),punto_verde_de_interior_totem,Papel / Cartón / Vidrio / Metal / Plástico / Tetra-brik / Telgopor,Horario de atención del edificio en el que está instalado,,Av. Warnes,2450,,WARNES AV. 2450,Paternal,Comuna 15,"Para entregar los materiales, éstos deben estar limpios y secos"
-58.4479119832354,-34.6067210515857,222,Plaza 24 de Septiembre,Punto Verde Con Atención,punto_verde_con_atencion,Papel / Cartón / Vidrio / Metal / Plástico / Tetra-brik / Telgopor,Miércoles a Domingos de 11 a 19 hs.,,Rojas,0,Antezana,ROJAS y ANTEZANA,Villa Crespo,Comuna 15,"Para entregar los materiales, éstos deben estar limpios y secos"
-58.3838514387884,-34.5979066184231,223,Plaza Libertad,Punto Verde Especial,punto_verde_especial,Aparatos de informática y comunicación (hasta 3 unid. y accesorios) /pequeños electrodomésticos (hasta 3 un.)/ papel / cartón / metal / vidrio / plástico / telgopor / tetra-brik / Aceite Vegetal usado,Miércoles a Domingos de 11 a 19 hs.,,Paraguay,0,Libertad,PARAGUAY y LIBERTAD,Retiro,Comuna 1,"Para entregar los materiales, éstos deben estar limpios y secos - Aceite vegetal usado (frío y en envase cerrado de plástico)"
-58.3682396772374,-34.6119825249639,224,Plaza Presidente Juan Domingo Perón,Punto Verde Con Atención,punto_verde_con_atencion,Papel / Cartón / Vidrio / Metal / Plástico / Tetra-brik / Telgopor,Miércoles a Domingos de 11 a 19 hs.,,Azopardo,0,Belgrano,AZOPARDO y BELGRANO AV.,Monserrat,Comuna 1,"Para entregar los materiales, éstos deben estar limpios y secos"
-58.4435310068782,-34.5587164351343,225,Club Atlético Excursionistas,Punto Verde De Interior (Totem),punto_verde_de_interior_totem,Papel / Cartón / Vidrio / Metal / Plástico / Tetra-brik / Telgopor,Horario de atención del edificio en el que está instalado,,Pampa,1376,,LA PAMPA 1376,Belgrano,Comuna 13,"Para entregar los materiales, éstos deben estar limpios y secos"
-58.442063437532205,-34.5493171801258,226,Paseo de las Américas,Punto Verde Con Atención,punto_verde_con_atencion,Papel / Cartón / Vidrio / Metal / Plástico / Tetra-brik / Telgopor / Aceite vegetal usado,Miércoles a Domingos de 11 a 19hs.,,Ramsay,0,Blanco Encalada,RAMSAY y BLANCO ENCALADA,Belgrano,Comuna 13,"Para entregar los materiales, éstos deben estar limpios y secos"
-58.4548528582765,-34.5845028297583,227,Plaza Roberto J. Santoro,Punto Verde Con Atención,punto_verde_con_atencion,Papel / Cartón / Vidrio / Metal / Plástico / Tetra-brik / Telgopor / Aceite vegetal usado,Miércoles a Domingos de 11 a 19 hs.,,Forest,0,Teodoro Garcia,"FOREST AV. y GARCIA, TEODORO",Chacarita,Comuna 15,"Para entregar los materiales, éstos deben estar limpios y secos"
-58.416847407939905,-34.6278405027252,228,Plaza Amaya,Punto Verde Con Atención,punto_verde_con_atencion,Papel / Cartón / Vidrio / Metal / Plástico / Tetra-brik / Telgopor / Aceite vegetal usado,Miércoles a Domingos de 11 a 19hs.,,Constitucion,0,Colombres,CONSTITUCION y COLOMBRES,Boedo,Comuna 5,"Para entregar los materiales, éstos deben estar limpios y secos"
-58.4082908703102,-34.6100007944876,229,Plaza Miserere,Punto Verde Con Atención,punto_verde_con_atencion,Papel / Cartón / Vidrio / Metal / Plástico / Tetra-brik / Telgopor / Aceite vegetal usado,Miércoles a Domingos de 11 a 19 hs.,,Av. Rivadavia,0,Ecuador,RIVADAVIA AV. y ECUADOR,Balvanera,Comuna 3,"Para entregar los materiales, éstos deben estar limpios y secos"
-58.443378945142896,-34.6125501349581,230,Plaza Amadeo Sabattini,Punto Verde Con Atención,punto_verde_con_atencion,Papel / Cartón / Vidrio / Metal / Plástico / Tetra-brik / Telgopor / Aceite vegetal usado,Miércoles a Domingos de 11 a 19 hs.,,Colpayo,0,Vallese,"COLPAYO y VALLESE, FELIPE",Caballito,Comuna 6,"Para entregar los materiales, éstos deben estar limpios y secos"
-58.3956416972535,-34.635551924135896,231,Plaza Florentino Ameghino,Punto Verde Con Atención,punto_verde_con_atencion,Papel / Cartón / Vidrio / Metal / Plástico / Tetra-brik / Telgopor / Aceite vegetal usado,Miércoles a Domingos de 11 a 19 hs.,,Caseros,0,Monasterio,CASEROS AV. y MONASTERIO,Parque Patricios,Comuna 4,"Para entregar los materiales, éstos deben estar limpios y secos"
-58.4935678503523,-34.6288651031635,232,Plaza de la Bandera,Punto Verde Con Atención,punto_verde_con_atencion,Papel / Cartón / Vidrio / Metal / Plástico / Tetra-brik / Telgopor / Aceite vegetal usado,Miércoles a Domingos de 11 a 19 hs.,,Av. Juan B Justo,0,Gaona,"JUSTO, JUAN B. AV. y GAONA AV.",Velez Sarsfield,Comuna 10,"Para entregar los materiales, éstos deben estar limpios y secos"
-58.4923749154374,-34.6203615680964,233,Plaza Ciudad de Udine,Punto Verde Con Atención,punto_verde_con_atencion,Papel / Cartón / Vidrio / Metal / Plástico / Tetra-brik / Telgopor / Aceite vegetal usado,Miércoles a Domingos de 11 a 19 hs.,,Chivilcoy,0,Camarones,CHIVILCOY y CAMARONES,Floresta,Comuna 10,"Para entregar los materiales, éstos deben estar limpios y secos"
-58.4826517468136,-34.635538870037195,234,Plaza Coronel Ramón Falcón,Punto Verde Con Atención,punto_verde_con_atencion,Papel / Cartón / Vidrio / Metal / Plástico / Tetra-brik / Telgopor / Aceite vegetal usado,Miércoles a Domingos de 11 a 19 hs.,,"FALCON, RAMON L.,CNEL.",0,"BENEDETTI, OSVALDO E., DIP.NAC.",,,,"Para entregar los materiales, éstos deben estar limpios y secos"
